time,lat,lon,alt,tas,heading,pitch,roll,flight_phase,throttle,target_pitch,target_roll,dist_to_dest,fuel,mass
0.0,40.080124586732694,116.58455208700305,10.0,2.045733008608743,188.26505763709898,0.0,0.0,TAXI,0.3,0.0,0.0,1956842.674297179,16945.80067098851,70345.80067098851
2.0,40.08005180108798,116.58453826878679,10.0,4.08916878302777,188.26505763709898,0.0,0.0,TAXI,0.3,0.0,0.0,1956834.4960258007,16944.602423598822,70344.60242359882
4.0,40.079942709369476,116.58451755796462,10.0,6.12887955561505,188.26505763709898,0.0,0.0,TAXI,0.3,0.0,0.0,1956822.2383659533,16943.40525661635,70343.40525661634
6.0,40.07971265024302,116.58447388189441,10.0,12.924946971394888,188.26505763709898,0.0,0.0,TAKEOFF_ROLL,1.0,0.0,0.0,1956796.3886817978,16939.41829480052,70339.41829480052
8.0,40.07936233304239,116.58440737551335,10.0,19.681163320763936,188.26505763709898,0.0,0.0,TAKEOFF_ROLL,1.0,0.0,0.0,1956757.0266752555,16935.443310394392,70335.44331039439
10.0,40.07901273186373,116.5843410054071,0.0,32.7531839424017,188.26505763709898,0.0,0.0,TAKEOFF_ROLL,1.0,0.0,0.0,1956717.7451215785,16931.480233164333,70331.48023316433
12.0,40.07839063566093,116.58422290450703,0.0,45.64990716293535,188.26505763709898,0.0,0.0,TAKEOFF_ROLL,1.0,0.0,0.0,1956647.8457450138,16927.537983254842,70327.53798325485
14.0,40.07751863330211,116.58405736267574,0.0,58.314978752984636,188.26505763709898,0.0,0.0,TAKEOFF_ROLL,1.0,0.0,0.0,1956549.8666560159,16923.618472720384,70323.61847272038
16.0,40.07640990632207,116.58384688422406,0.0,70.70298156568494,188.26505763709898,0.0,0.0,TAKEOFF_ROLL,1.0,0.0,0.0,1956425.2889468283,16919.721293115093,70319.72129311509
18.0,40.07507462215357,116.58359340159156,0.0,82.7724431734989,188.26505763709898,0.0,0.0,TAKEOFF_ROLL,1.0,0.0,0.0,1956275.255041724,16915.845955914036,70315.84595591403
20.0,40.07351683465334,116.58329768697624,0.0,93.79149524809242,188.26505763709898,6.4,0.0,ROTATION,1.0,12.0,0.0,1956100.22043712,16911.991899468507,70311.9918994685
22.0,40.07180885080478,116.58297346873688,23.090541822759274,96.64826192659967,188.26505763709898,12.0,0.0,ROTATION,1.0,12.0,0.0,1955908.309618538,16908.157271706787,70308.15727170679
24.0,40.070134361414134,116.58254440684912,55.94265937950662,96.28177383835833,191.0940980129746,14.969380870310289,11.0,INITIAL_CLIMB,0.7273381807340032,14.969380870310289,30.0,1955718.7644853147,16905.375491917475,70305.37549191748
26.0,40.06846959948464,116.58211784789756,87.0896536271432,95.59619287028262,191.0940980129746,15.0,0.0,INITIAL_CLIMB,0.7310030616164166,15.0,-4.2479843087190545,1955530.320536753,16902.584406754635,70302.58440675464
28.0,40.06680899435401,116.58172596711502,117.59884739494288,95.051078846203,190.23723157466537,15.0,-4.250861285271256,INITIAL_CLIMB,0.7378588712971738,15.0,-4.250861285271256,1955342.7695101413,16899.77121148171,70299.77121148171
30.0,40.06515289798394,116.5813585826696,147.55354076364046,94.58563093978873,189.6355266908627,15.0,-2.967653141611507,INITIAL_CLIMB,0.74331001153797,15.0,-2.967653141611507,1955156.0221202187,16896.94140769668,70296.94140769668
32.0,40.06350119850069,116.58100847660782,176.99896059983686,94.1885799593501,189.2145438111571,15.0,-2.066638867701343,INITIAL_CLIMB,0.7479644906021127,15.0,-2.066638867701343,1954969.9753380846,16894.0980970756,70294.09809707559
34.0,40.061853575951815,116.58067056840291,205.98946144464958,93.85136973440198,188.92061090538203,15.0,-1.4363257356737051,INITIAL_CLIMB,0.7519350004064991,15.0,-1.4363257356737051,1954784.5301217607,16891.243932600213,70291.24393260022
36.0,40.06020961853832,116.58034127974832,234.57547278561583,93.56582143115038,188.71588062441407,15.0,-0.9963220203847811,INITIAL_CLIMB,0.7553071026559801,15.0,-0.9963220203847811,1954599.5962112239,16888.38122884602,70288.38122884602
38.0,40.058568888908184,116.5800180921066,262.802827015656,93.32468838412548,188.5735936899223,15.0,-0.6899378893408681,INITIAL_CLIMB,0.7581625856884961,15.0,-0.6899378893408681,1954415.093856401,16885.511978028957,70285.51197802895
40.0,40.05693095919227,116.57969923293793,290.712089124233,93.12160754144851,188.47489325816406,15.0,-0.4770909831899388,INITIAL_CLIMB,0.7605739161587451,15.0,-0.4770909831899388,1954230.9537259839,16882.637887552646,70282.63788755264
42.0,40.055295429011345,116.57938345399127,318.33869159199384,92.95105323561607,188.40653509003118,15.0,-0.3295353593632484,INITIAL_CLIMB,0.7626047245855149,15.0,-0.3295353593632484,1954047.1161010158,16879.76041530215,70279.76041530215
44.0,40.053661933725614,116.5790698749913,345.7133266841825,92.80825701555366,188.3592483692278,15.0,-0.2274319495545143,INITIAL_CLIMB,0.7643102676438392,15.0,-0.2274319495545143,1953863.529817522,16876.880802914737,70276.88080291473
46.0,40.05203014712455,116.57875787373072,372.86244174463235,92.6891216324101,188.3265638661184,15.0,-0.1568934385761338,INITIAL_CLIMB,0.7657382298444634,15.0,-0.1568934385761338,1953680.1511810063,16874.00010575943,70274.00010575943
48.0,40.05039978098298,116.57844700897276,399.80874799511724,92.59013710489214,188.3039798923778,15.0,-0.10822906621466188,INITIAL_CLIMB,0.7669295836758989,15.0,-0.10822906621466188,1953496.9429487048,16871.119219439428,70271.11921943942
50.0,40.04877058291824,116.57813696646866,426.5717027933836,92.5083030927625,188.28837153405937,15.0,-0.07469534355057306,INITIAL_CLIMB,0.7679194289510787,15.0,-0.07469534355057306,1953313.873415506,16868.238902927988,70268.23890292799
52.0,40.047142333405304,116.57782752120629,453.1679485729395,92.44105910830625,188.27757415905822,15.0,-0.05161114498757513,INITIAL_CLIMB,0.7687377690723749,15.0,-0.05161114498757513,1953130.915611267,16865.359798605707,70265.3597986057
54.0,40.045514842462545,116.57751851102493,479.6117034625697,92.38622282613855,188.27009103682408,15.0,-0.03573383257317175,INITIAL_CLIMB,0.7694102089169375,15.0,-0.03573383257317175,1952948.0466047383,16862.482449521594,70262.4824495216
56.0,40.0438879463107,116.57720981817269,505.91510425404385,92.34193613033472,188.26488885480725,15.0,-0.024821284003863298,INITIAL_CLIMB,0.7699585717386145,15.0,-0.024821284003863298,1952765.2469043683,16859.607314206696,70259.60731420669
58.0,40.042198035040784,116.57688926548316,519.0977104808011,95.16881322772136,188.2626285071392,15.0,-0.017325581511499877,DEPARTURE,1.0,15.0,-0.017325581511499877,1952575.367878482,16855.878693373168,70255.87869337318
60.0,40.04043870902678,116.57655566053886,529.6686961949725,98.98062163996646,188.2600365990014,13.280381318465553,-0.014252627454865774,DEPARTURE,1.0,13.280381318465553,-0.014252627454865774,1952377.6907210653,16852.157745928347,70252.15774592834
62.0,40.03860932087978,116.57620886802675,541.4347927976817,102.94321009381702,188.25796135754786,12.621978186364506,-0.01069306674936854,DEPARTURE,1.0,12.621978186364506,-0.01069306674936854,1952172.1425208221,16848.445606616984,70248.44560661698
64.0,40.036717293099976,116.57585028363741,558.8411762634162,106.64932588068085,188.2563126059596,12.643346337941127,-0.00791969777348811,DEPARTURE,1.0,12.643346337941127,-0.00791969777348811,1951959.5571064153,16844.74278080607,70244.74278080607
66.0,40.03477196316492,116.57548166077164,582.066717725333,109.90304115861699,188.25514125205112,13.392721875775175,-0.005796186982919949,DEPARTURE,1.0,13.392721875775175,-0.005796186982919949,1951740.983406606,16841.050010754763,70241.05001075476
68.0,40.03278162045163,116.57510455897632,610.6487425046819,112.72590368058458,188.2542866528098,14.146630869871977,-0.004397591264236667,DEPARTURE,1.0,14.146630869871977,-0.004397591264236667,1951517.3526493697,16837.367733932246,70237.36773393225
70.0,40.030752956720015,116.57472023875876,643.8615435923161,115.17252009494915,188.253637133809,14.81437244220486,-0.0034817161397171503,DEPARTURE,1.0,14.81437244220486,-0.0034817161397171503,1951289.4166056262,16833.696322537384,70233.69632253738
72.0,40.02868676207961,116.57432884392081,678.8208434721594,117.3860550214058,188.25314705206782,15.0,-0.0028800217956614915,DEPARTURE,1.0,15.0,-0.0028800217956614915,1951057.2639681431,16830.036085965192,70230.0360859652
74.0,40.02658464650351,116.5739306774794,715.3764812543991,119.50129764174048,188.2527269413038,15.0,-0.002524064748868682,DEPARTURE,1.0,15.0,-0.002524064748868682,1950821.0755968934,16826.386971001728,70226.38697100173
76.0,40.024448157957394,116.57352603155518,753.4502610334831,121.52646314203481,188.25235473618636,15.0,-0.002279423767348021,DEPARTURE,1.0,15.0,-0.002279423767348021,1950581.0253958572,16822.74912285164,70222.74912285164
78.0,40.02227871465821,116.57311517423939,792.9461066582772,123.46694476291083,188.25201608854314,15.0,-0.002112769433111339,DEPARTURE,1.0,15.0,-0.002112769433111339,1950337.2726979638,16819.122683210728,70219.12268321073
80.0,40.020077659000464,116.57269835966308,833.7887174499772,125.3282204143848,188.25170057511355,15.0,-0.002002357998620141,DEPARTURE,1.0,15.0,-0.002002357998620141,1950089.9683222736,16815.50778179641,70215.5077817964
82.0,40.0178462477538,116.57227582601269,875.9029319604581,127.1147641121787,188.25140099533255,15.0,-0.0019323365717980323,DEPARTURE,1.0,15.0,-0.0019323365717980323,1949839.2534709815,16811.90454092483,70211.90454092482
84.0,40.015585671971294,116.57184779922228,919.2227444041266,128.83073255952178,188.25111214020768,15.0,-0.0018916946335139073,DEPARTURE,1.0,15.0,-0.0018916946335139073,1949585.261965261,16808.313073913665,70208.31307391367
86.0,40.01329705831978,116.57141449316394,963.6852015871849,130.47975572354653,188.25083031446184,15.0,-0.0018724155768268247,DEPARTURE,1.0,15.0,-0.0018724155768268247,1949328.1203939482,16804.733486525543,70204.73348652554
88.0,40.010981478838794,116.57097611145461,1009.2327639869553,132.0651572205927,188.25055283214988,15.0,-0.0018687611614325306,DEPARTURE,1.0,15.0,-0.0018687611614325306,1949067.9492095027,16801.1658767807,70201.1658767807
90.0,40.00863995413157,116.57053284802896,1055.8110506780058,133.58992308967493,188.25027776177467,15.0,-0.0018765141507230965,DEPARTURE,1.0,15.0,-0.0018765141507230965,1948804.8630861337,16797.61033562789,70197.61033562789
92.0,40.0062734591755,116.57008488821778,1103.3694485880903,135.05679398719704,188.25000369502925,15.0,-0.001892596171387595,DEPARTURE,1.0,15.0,-0.001892596171387595,1948538.9715723607,16794.06694709107,70194.06694709107
94.0,40.00388292639129,116.56963240931256,1151.8600994163226,136.46827240095,188.24972961462484,15.0,-0.001914720304867501,DEPARTURE,1.0,15.0,-0.001914720304867501,1948270.3794356352,16790.5357886934,70190.5357886934
96.0,40.00146924954158,116.56917558129196,1201.238000823472,137.82666997971722,188.24945478111917,15.0,-0.0019411926836738758,DEPARTURE,1.0,15.0,-0.0019411926836738758,1947999.1871002316,16787.016931681,70187.01693168099
98.0,39.999033286312454,116.56871456730174,1251.460470823942,139.13412136076147,188.24917866370677,15.0,-0.001970742321972807,DEPARTURE,1.0,15.0,-0.001970742321972807,1947725.4909371717,16783.510441343657,70183.51044134365
100.0,39.99657586112683,116.5682495241811,1302.4870988087632,140.3926121667013,188.24890088231612,15.0,-0.00200241705930182,DEPARTURE,1.0,15.0,-0.00200241705930182,1947449.3835802446,16780.016377245807,70180.0163772458
102.0,39.99409776724722,116.56778060285612,1354.2794241213362,141.6039919628664,188.24862117070015,15.0,-0.0020354963634190426,DEPARTURE,1.0,15.0,-0.0020354963634190426,1947170.9541621986,16776.53479349153,70176.53479349153
104.0,39.99159976890383,116.56730794873927,1406.8008487199766,142.76999242902886,188.2483393457957,15.0,-0.0020694357127553076,DEPARTURE,1.0,15.0,-0.0020694357127553076,1946890.2885538053,16773.065738942918,70173.06573894291
106.0,39.989082603002174,116.56683170205025,1460.0164253918742,143.8922380098408,188.24805528765526,15.0,-0.0021038203460932436,DEPARTURE,1.0,15.0,-0.0021038203460932436,1946607.4695556774,16769.60925744853,70169.60925744852
108.0,39.986546980787054,116.56635199812933,1513.8927680516183,144.97225845230048,188.24776892278865,15.0,-0.0021383349253198958,DEPARTURE,1.0,15.0,-0.0021383349253198958,1946322.577085207,16766.165388044217,70166.16538804422
110.0,39.9839935892392,116.56586896770055,1568.397902484705,146.0114972342826,188.2474802130522,15.0,-0.0021727383015957002,DEPARTURE,1.0,15.0,-0.0021727383015957002,1946035.688333464,16762.73416515443,70162.73416515443
112.0,39.981423092409734,116.56538273712357,1623.5011852107345,147.01132058637714,188.2471891463885,15.0,-0.0022068466401492515,DEPARTURE,1.0,15.0,-0.0022068466401492515,1945746.877915119,16759.315618775305,70159.3156187753
114.0,39.97883613257484,116.56489342861184,1679.173193055036,147.97302410315396,188.2468957305748,15.0,-0.002240519321773604,DEPARTURE,1.0,15.0,-0.002240519321773604,1945456.2179981677,16755.909774654352,70155.90977465436
116.0,39.97623333132817,116.56440116043912,1735.3856529315804,148.89783943881443,188.24659998797955,15.0,-0.002273649380683196,DEPARTURE,1.0,15.0,-0.002273649380683196,1945163.7784266602,16752.516654457053,70152.51665445705
118.0,39.973615290546846,116.56390604712234,1792.1113571519943,149.78693950570454,188.24630195199606,15.0,-0.0023061554632448633,DEPARTURE,1.0,15.0,-0.0023061554632448633,1944869.626829236,16749.136275928635,70149.13627592864
120.0,39.97098259330134,116.56340819959391,1849.3241036142588,150.64144356519643,188.24600166402837,15.0,-0.002337976317420498,DEPARTURE,1.0,15.0,-0.002337976317420498,1944573.8287213456,16745.768653045812,70145.76865304582
122.0,39.968335804673366,116.56290772535671,1906.99862904319,151.46242134541836,188.24569917143376,15.0,-0.0023690661203659147,DEPARTURE,1.0,15.0,-0.0023690661203659147,1944276.4475971502,16742.413796163368,70142.41379616337
124.0,39.96567547252503,116.56240472863001,1965.1105582443492,152.25089699028342,188.24539452576957,15.0,-0.002399391252382088,DEPARTURE,1.0,15.0,-0.002399391252382088,1943977.5450159379,16739.071712152665,70139.07171215267
126.0,39.96300212819923,116.56189931048236,2023.6363503260736,153.007852352328,188.24508778159634,15.0,-0.0024289275356892404,DEPARTURE,1.0,15.0,-0.0024289275356892404,1943677.1806808163,16735.742404535125,70135.74240453512
128.0,39.960316287178486,116.56139156895665,2082.553255580073,153.7342301095339,188.24477899544962,15.0,-0.0024576583178799183,DEPARTURE,1.0,15.0,-0.0024576583178799183,1943375.4125127392,16732.425873609027,70132.42587360903
130.0,39.95761844969099,116.56088159918531,2141.8392713891317,154.43093642618953,188.2444682251404,15.0,-0.0024855728150470213,DEPARTURE,1.0,15.0,-0.0024855728150470213,1943072.2967185997,16729.12211657154,70129.12211657154
132.0,39.954909101281494,116.56036949349873,2201.4731054390845,155.09884345122865,188.2441555291496,15.0,-0.002512664955546029,DEPARTURE,1.0,15.0,-0.002512664955546029,1942767.8878553752,16725.83112763514,70125.83112763515
134.0,39.952188713340796,116.55985534152602,2261.434139031041,155.73879149164682,188.24384096621912,15.0,-0.0025389323721611845,DEPARTURE,1.0,15.0,-0.0025389323721611845,1942462.2388896209,16722.552898139624,70122.55289813962
136.0,39.94945774360549,116.55933923029002,2321.7023955316486,156.35159104351408,188.24352459499585,15.0,-0.0025643756932112183,DEPARTURE,1.0,15.0,-0.0025643756932112183,1942155.401253621,16719.287416659266,70119.28741665927
138.0,39.94671663662463,116.55882124429615,2382.2585094613964,156.93802458633203,188.24320647379406,15.0,-0.002588997921307623,DEPARTURE,1.0,15.0,-0.002588997921307623,1941847.4248978237,16716.034669105975,70116.03466910598
140.0,39.9439658242011,116.55830146561644,2443.083699285825,157.49884825573525,188.24288666038808,15.0,-0.002612803992917634,DEPARTURE,1.0,15.0,-0.002612803992917634,1941538.3583404375,16712.79463882822,70112.79463882823
142.0,39.94120572580616,116.55777997396845,2504.1597410878635,158.03479334041998,188.24256521187667,15.0,-0.0026358003881483683,DEPARTURE,1.0,15.0,-0.0026358003881483683,1941228.248714005,16709.567306706314,70109.56730670632
144.0,39.93843674897234,116.55725684679021,2565.468944971575,158.54656767643095,188.24224218456476,15.0,-0.0026579948530383035,DEPARTURE,1.0,15.0,-0.0026579948530383035,1940917.1418095538,16706.352651243968,70106.35265124397
146.0,39.93565928966427,116.55673215931084,2626.9941324276424,159.03485690850786,188.24191763388887,15.0,-0.002679396151393121,DEPARTURE,1.0,15.0,-0.002679396151393121,1940605.0821182632,16703.15064865656,70103.15064865656
148.0,39.932873732630874,116.55620598461773,2688.71861576017,159.50032566531613,188.24159161435267,15.0,-0.002700013886112629,DEPARTURE,1.0,15.0,-0.002700013886112629,1940292.112871036,16699.961272956087,70099.96127295609
150.0,39.930080451739094,116.55567839372024,2750.6261784677054,159.94361863238237,188.2412641794888,15.0,-0.0027198583388923225,DEPARTURE,1.0,15.0,-0.0027198583388923225,1939978.2760760025,16696.784496033142,70096.78449603314
152.0,39.927279810291616,116.55514945561028,2812.7010572154163,160.36536155289124,188.24093538182706,15.0,-0.0027389403521311806,DEPARTURE,1.0,15.0,-0.0027389403521311806,1939663.6125542151,16693.620287735932,70093.62028773593
154.0,39.924472161328836,116.55461923731994,2874.927924708321,160.76616214844088,188.2406052728781,15.0,-0.002757271223885027,DEPARTURE,1.0,15.0,-0.002757271223885027,1939348.1619735858,16690.468615946585,70090.4686159466
156.0,39.92165784791698,116.55408780397661,2937.2918738202593,161.1466109793032,188.24027390312108,15.0,-0.002774862629038921,DEPARTURE,1.0,15.0,-0.002774862629038921,1939031.9628812543,16687.32944665482,70087.32944665483
158.0,39.91883720342273,116.55355521885534,2999.7784025496194,161.5072822410246,188.2399413220007,15.0,-0.0027917265470023267,DEPARTURE,1.0,15.0,-0.0027917265470023267,1938715.052734451,16684.20274402916,70084.20274402916
160.0,39.91601055177571,116.55302154342903,3062.3733999873416,161.84873451014727,188.2396075779263,15.0,-0.002807875208972632,DEPARTURE,1.0,15.0,-0.002807875208972632,1938397.4679299917,16681.088470485745,70081.08847048575
162.0,39.91317843196651,116.55248687975104,3125.058166576777,162.15867141230243,188.239272691767,15.0,-0.002823321047159766,DEPARTURE,0.9975826548985269,15.0,-0.002823321047159766,1938079.2690274531,16677.987651500418,70077.98765150041
164.0,39.910341418895264,116.5519513366188,3187.8061923383675,162.43436034884311,188.23893674766504,15.0,-0.002837995915925262,DEPARTURE,0.9944832858769754,15.0,-0.002837995915925262,1937760.5206207614,16674.90233226987,70074.90233226988
166.0,39.90750004308241,116.55141501442262,3250.5956230983893,162.67869964386384,188.2385997397108,15.0,-0.002851920092552973,DEPARTURE,0.9917263965115686,15.0,-0.002851920092552973,1937441.2823174736,16671.831390302374,70071.83139030237
168.0,39.90465478786575,116.55087800461585,3313.4045335546866,162.89428584680834,188.23826172099572,15.0,-0.0028649867949610552,DEPARTURE,0.9892830035613613,15.0,-0.0028649867949610552,1937121.6084238372,16668.7738014784,70068.7738014784
170.0,39.90180609822687,116.55034039138532,3376.2140701868316,163.08353248699743,188.23792272095312,15.0,-0.0028771863722454327,DEPARTURE,0.9871271415319163,15.0,-0.0028771863722454327,1936801.54893649,16665.728629485988,70065.728629486
172.0,39.898954380590794,116.54980225161407,3439.005923258211,163.24862047679963,188.2375827996224,15.0,-0.0028884806717570655,DEPARTURE,0.9852346751300254,15.0,-0.0028884806717570655,1936481.1495199527,16662.69501947247,70062.69501947248
174.0,39.896100008537644,116.54926365596256,3501.7638913807305,163.39156658654963,188.23724200409978,15.0,-0.002898884525919243,DEPARTURE,0.9835837952320035,15.0,-0.002898884525919243,1936160.4521483642,16659.672189948607,70059.67218994861
176.0,39.89324332382906,116.54872466906363,3564.4725642748176,163.51420426081802,188.23690039606745,15.0,-0.0029083993699572375,DEPARTURE,0.9821543341345034,15.0,-0.0029083993699572375,1935839.4952208102,16656.659427113664,70056.65942711366
178.0,39.89038464026938,116.54818535025355,3627.118048276157,163.61822370649813,188.2365580297441,15.0,-0.002917054375330963,DEPARTURE,0.9809279573918195,15.0,-0.002917054375330963,1935518.313995152,16653.656078509564,70053.65607850956
180.0,39.88752424520161,116.5476457538558,3689.6872927163295,163.7051679402321,188.23621496519382,15.0,-0.002924872663641054,DEPARTURE,0.9798877629350184,15.0,-0.002924872663641054,1935196.9407561081,16650.66154808643,70050.66154808643
182.0,39.884662402257135,116.54710592970189,3752.168391080673,163.77645709646393,188.23587125765042,15.0,-0.002931891008756793,DEPARTURE,0.9790183205976788,15.0,-0.002931891008756793,1934875.4051242068,16647.675291132848,70047.67529113285
184.0,39.88179935293154,116.54656592343005,3814.5502369382802,163.83339138978386,188.23552696362407,15.0,-0.002938143318147013,DEPARTURE,0.9783054290353603,15.0,-0.002938143318147013,1934553.7342328418,16644.696810058424,70044.69681005842
186.0,39.87893531864625,116.54602577687594,3876.822623478851,163.87716670683145,188.23518213598817,15.0,-0.002943669510173663,DEPARTURE,0.9777360861021611,15.0,-0.002943669510173663,1934231.9529599098,16641.725650282184,70041.72565028218
188.0,39.87607050222394,116.54548552835226,3938.9760623535576,163.90888016544048,188.23483682664036,15.0,-0.0029485077646853597,DEPARTURE,0.9772983329316852,15.0,-0.0029485077646853597,1933910.0840935896,16638.761396665504,70038.7613966655
190.0,39.87320508950192,116.54494521295453,4001.001795073245,163.92954083234608,188.23449108437777,15.0,-0.0029526982461618445,DEPARTURE,0.9769811983455949,15.0,-0.0029526982461618445,1933588.1485136172,16635.803670140067,70035.80367014007
192.0,39.870339250639226,116.54440486280882,4062.891690420436,163.94007579821712,188.23414495601378,15.0,-0.002956279619951374,DEPARTURE,0.9767745916765389,15.0,-0.002956279619951374,1933266.1653381456,16632.8521247087,70032.8521247087
194.0,39.86747314141863,116.54386450731855,4124.638222033593,163.9413380577782,188.23379848554043,15.0,-0.002959290488220745,DEPARTURE,0.9766692420178285,15.0,-0.002959290488220745,1932944.1520700417,16629.906444657896,70029.9064446579
196.0,39.86460690437307,116.54332417337795,4186.234403701562,163.9341122058197,188.23345171460406,15.0,-0.0029617678921027846,DEPARTURE,0.9766566194222175,15.0,-0.0029617678921027846,1932622.124723447,16626.966342043466,70026.96634204347
198.0,39.86174066985719,116.54278388557528,4247.673757244017,163.9191205466083,188.23310468223426,15.0,-0.0029637478194075584,DEPARTURE,0.9767288779418026,15.0,-0.0029637478194075584,1932300.0979441751,16624.03155437365,70024.03155437365
200.0,39.85887455700517,116.5422436663742,4308.95026687816,163.89702810257057,188.23275742507641,15.0,-0.0029652645977478187,DEPARTURE,0.9768787945339167,15.0,-0.0029652645977478187,1931978.0851173308,16621.101842503256,70021.10184250325
202.0,39.85600867462278,116.54170353628305,4370.058347068131,163.86844752043197,188.2324099773585,15.0,-0.0029663510683093364,DEPARTURE,0.9770997189742939,15.0,-0.0029663510683093364,1931656.0984675433,16618.17698870064,70018.17698870064
204.0,39.85314312199708,116.54116351400818,4430.992807491832,163.83394334892827,188.23206237104017,15.0,-0.0029670383693201074,DEPARTURE,0.97738552479568,15.0,-0.0029670383693201074,1931334.1491499417,16615.25679488358,70015.25679488358
206.0,39.85027798964391,116.54062361659567,4491.748824139277,163.79403606034452,188.2317146358741,15.0,-0.002967356010231015,DEPARTURE,0.977730566510717,15.0,-0.002967356010231015,1931012.2473341406,16612.34108100217,70012.34108100217
208.0,39.847413359991094,116.54008385956085,4552.3219110227965,163.7492056573962,188.23136679952853,15.0,-0.0029673318250331704,DEPARTURE,0.9781296393965544,15.0,-0.0029673318250331704,1930690.4022810077,16609.42968355971,70009.4296835597
210.0,39.8445493080071,116.53954425700745,4612.707895222037,163.69989500631897,188.23101888768224,15.0,-0.0029669920286607976,DEPARTURE,0.9785779434260377,15.0,-0.0029669920286607976,1930368.6224132956,16606.522454257076,70006.52245425708
212.0,39.84168590177753,116.53900482173682,4672.90289344879,163.64651286318488,188.23067092413743,15.0,-0.002966361242528137,DEPARTURE,0.97907104993681,15.0,-0.002966361242528137,1930046.9153804157,16603.61925875109,70003.61925875109
214.0,39.83882320303511,116.53846556534843,4732.903290819129,163.5894366525595,188.23032293092285,15.0,-0.0029654625570287863,DEPARTURE,0.9796048713681509,15.0,-0.0029654625570287863,1929725.2881179927,16600.71997551615,70000.71997551614
216.0,39.83596126764657,116.53792649833208,4792.7057212085865,163.52901500356654,188.2299749283999,15.0,-0.0029643175870006644,DEPARTURE,0.9801756334744047,15.0,-0.0029643175870006644,1929403.746902562,16597.82449480059,69997.82449480059
218.0,39.83310014606029,116.53738763015279,4852.307049278913,163.4655700738882,188.22962693536326,15.0,-0.0029629465405776045,DEPARTURE,0.9807798499643343,15.0,-0.0029629465405776045,1929082.2974018746,16594.93271766928,69994.93271766928
220.0,39.83023988371795,116.5368489693288,4911.704353919185,163.39939967576612,188.22927896913936,15.0,-0.002961368286591437,DEPARTURE,0.9814142992611178,15.0,-0.002961368286591437,1928760.9447211428,16592.044555125198,69992.0445551252
222.0,39.82738052143327,116.5363105235033,4970.89491303801,163.33077922378794,188.22893104568047,15.0,-0.0029596004246172924,DEPARTURE,0.9820760032423385,15.0,-0.0029596004246172924,1928439.693445599,16589.15992730311,69989.15992730312
224.0,39.82452209574051,116.53577229951054,5029.876189564652,163.2599635188738,188.22858317965432,15.0,-0.0029576593567668397,DEPARTURE,0.9827622077621203,15.0,-0.0029576593567668397,1928118.5476796536,16586.278762729187,69986.27876272918
226.0,39.821664639215385,116.53523430343654,5088.64581857073,163.18718838332003,188.22823538452968,15.0,-0.002955560355559328,DEPARTURE,0.9834703648112617,15.0,-0.002955560355559328,1927797.511082947,16583.400997640983,69983.40099764099
228.0,39.81880818077055,116.53469654067517,5147.2015954123435,163.11267215954894,188.22788767265695,15.0,-0.0029533176342226852,DEPARTURE,0.9841981161667993,15.0,-0.0029533176342226852,1927476.5869035583,16580.5265753626,69980.5265753626
230.0,39.815952745927916,116.53415901597968,5205.541464810485,163.03661708447663,188.22754005534455,15.0,-0.002950944410173406,DEPARTURE,0.9849432784045102,15.0,-0.002950944410173406,1927155.778008594,16577.655445730397,69977.6554457304
232.0,39.81309835706955,116.53362173351029,5263.66351079056,162.95921055014807,188.2271925429307,15.0,-0.0029484529705854357,DEPARTURE,0.9857038291552334,15.0,-0.0029484529705854357,1926835.086912385,16574.78756456497,69974.78756456496
234.0,39.81024503366909,116.53308469687795,5321.565947410628,162.88062626042029,188.22684514485093,15.0,-0.0029458547317346984,DEPARTURE,0.986477894498519,15.0,-0.0029458547317346984,1926514.5158024856,16571.922893185525,69971.92289318552
236.0,39.80739279250514,116.53254790918484,5379.247110213208,162.8010252925642,188.22649786970115,15.0,-0.0029431602980452,DEPARTURE,0.9872637373957969,15.0,-0.0029431602980452,1926194.0665636498,16569.06139796309,69969.06139796309
238.0,39.80454164785821,116.53201137306166,5436.705448341468,162.72055707188426,188.22615072529692,15.0,-0.002940379516360281,DEPARTURE,0.9880597470743577,15.0,-0.002940379516360281,1925873.7407999595,16566.203049909323,69966.20304990932
240.0,39.80169161169249,116.53147509070202,5493.939517265503,162.63936026673207,188.22580371872874,15.0,-0.002937521527229592,DEPARTURE,0.988864429281157,15.0,-0.002937521527229592,1925553.539855251,16563.34782429796,69963.34782429796
242.0,39.79884269382376,116.53093906389428,5550.947972069098,162.55756361064394,188.22545685641356,15.0,-0.0029345948156418444,DEPARTURE,0.989676397332679,15.0,-0.0029345948156418444,1925233.4648319758,16560.495700316213,69960.49570031621
244.0,39.79599490207445,116.5304032940509,5607.729561251531,162.47528665774138,188.22511014414292,15.0,-0.0029316072547231897,DEPARTURE,0.9904943638935603,15.0,-0.0029316072547231897,1924913.5166086268,16557.646660743605,69957.6466607436
246.0,39.79314824241702,116.52986778223561,5664.283121002811,162.39264047699797,188.22476358712765,15.0,-0.002928566151140899,DEPARTURE,0.9913171334225859,15.0,-0.002928566151140899,1924593.6958558497,16554.80069165605,69954.80069165606
248.0,39.79030271910649,116.5293325291885,5720.607569914209,162.3097282904892,188.22441719003967,15.0,-0.0029254782830463455,DEPARTURE,0.9921435952300199,15.0,-0.0029254782830463455,1924274.003051329,16551.957782153033,69951.95778215304
250.0,39.7874583348031,116.52879753534918,5776.701904089146,162.22664606029844,188.22407095705057,15.0,-0.0029223499398511876,DEPARTURE,0.9929727170951077,15.0,-0.0029223499398511876,1923954.4384935712,16549.117924106045,69949.11792410605
252.0,39.78461509068575,116.52826280087842,5832.565192622362,162.1434830283495,188.2237248918676,15.0,-0.00291918695667448,DEPARTURE,0.9938035393970153,15.0,-0.00291918695667448,1923635.002314656,16546.281111926546,69946.28111192654
254.0,39.78177298655712,116.52772832567787,5888.196573417967,162.06032221306944,188.22337899776724,15.0,-0.0029159947459334035,DEPARTURE,0.9946351697165048,15.0,-0.0029159947459334035,1923315.6944920411,16543.447342351847,69943.44734235185
256.0,39.77893202094103,116.5271941094086,5943.595249319386,161.97724086645073,188.22303327762617,15.0,-0.0029127783297440146,DEPARTURE,0.9954667778693053,15.0,-0.0029127783297440146,1922996.5148595013,16540.616614247465,69940.61661424747
258.0,39.77609219117263,116.52666015150814,5998.7604845264095,161.89431089477768,188.22268773395,15.0,-0.0029095423670781884,DEPARTURE,0.9962975913354923,15.0,-0.0029095423670781884,1922677.4631172672,16537.788928424645,69937.78892842465
260.0,39.773253493482116,116.52612645120634,6053.691601276575,161.81159924600504,188.2223423689001,15.0,-0.002906291180195808,DEPARTURE,0.9971268910522229,15.0,-0.002906291180195808,1922358.5388414278,16534.964287471787,69934.96428747178
262.0,39.77041592307235,116.52559300754004,6108.387976769993,161.72916826652292,188.22199718431824,15.0,-0.0029030287792863874,DEPARTURE,0.9979540075399492,15.0,-0.0029030287792863874,1922039.7414926516,16532.142695598704,69932.14269559871
264.0,39.76757947419094,116.52505981936672,6162.849040318368,161.64707602981193,188.22165218174976,15.0,-0.0028997588851069622,DEPARTURE,0.9987783173347704,15.0,-0.0028997588851069622,1921721.0704242864,16529.324158492684,69929.32415849269
266.0,39.76474414019719,116.52452688537717,6217.07427070056,161.5653766392819,188.22130736246478,15.0,-0.002896484950042577,DEPARTURE,0.9995992397018805,15.0,-0.002896484950042577,1921402.5248898815,16526.508683185355,69926.50868318536
268.0,39.761909945452146,116.5239942100892,6271.062584354316,161.4823068138,188.22096272361293,15.0,-0.002893210177504102,DEPARTURE,1.0,15.0,-0.002893210177504102,1921084.1076259848,16523.697448060142,69923.69744806015
270.0,39.75907694142629,116.5234618031135,6324.811388933375,161.39624004725866,188.2206182689763,15.0,-0.002889925967096474,DEPARTURE,1.0,15.0,-0.002889925967096474,1920765.8244148323,16520.891567380528,69920.89156738053
272.0,39.7562451755609,116.52292967330082,6378.317514727078,161.30735336579525,188.22027400000616,15.0,-0.0028866287595974427,DEPARTURE,1.0,15.0,-0.0028866287595974427,1920447.6805859716,16518.09102378575,69918.09102378575
274.0,39.75341469243121,116.52239782896119,6431.578109590262,161.21583416072633,188.219929911099,15.0,-0.002883312225819168,DEPARTURE,1.0,15.0,-0.002883312225819168,1920129.6811469453,16515.29579962869,69915.29579962869
276.0,39.75058553355553,116.52186627782798,6484.590418701948,161.12186196358715,188.21958600101755,15.0,-0.0028799599591735614,DEPARTURE,1.0,15.0,-0.0028799599591735614,1919811.8307618462,16512.505877022548,69912.50587702254
278.0,39.74775773752845,116.52133502708314,6537.351833702354,161.02561292632717,188.21924226957032,15.0,-0.0028765626497317953,DEPARTURE,1.0,15.0,-0.0028765626497317953,1919494.133766282,16509.721237839,69909.721237839
280.0,39.74493134007802,116.52080408336798,6589.859878923483,160.92725881208563,188.21889871793158,15.0,-0.0028731130808239413,DEPARTURE,1.0,15.0,-0.0028731130808239413,1919176.594173796,16506.941863718053,69906.94186371805
282.0,39.742106374139155,116.52027345279714,6642.112211829452,160.82696726709952,188.218555348198,15.0,-0.0028696066011946186,DEPARTURE,1.0,15.0,-0.0028696066011946186,1918859.215684121,16504.16773607522,69904.16773607522
284.0,39.73928286992282,116.51974314097177,6694.106620371975,160.72490180168325,188.2182121631839,15.0,-0.0028660404488505264,DEPARTURE,1.0,15.0,-0.0028660404488505264,1918542.0016909484,16501.39883610933,69901.39883610932
286.0,39.73646085498533,116.51921315299262,6745.841021000904,160.62122183323234,188.21786916621951,15.0,-0.0028624134320835992,DEPARTURE,1.0,15.0,-0.0028624134320835992,1918224.9552897145,16498.63514481024,69898.63514481024
288.0,39.73364035429697,116.51868349347316,6797.313456546958,160.51608271504494,188.2175263609937,15.0,-0.002858725616931679,DEPARTURE,1.0,15.0,-0.002858725616931679,1917908.0792853106,16495.87664296656,69895.87664296656
290.0,39.730821390310034,116.51815416655252,6848.522094131605,160.40963576708745,188.21718375142444,15.0,-0.0028549780780338097,DEPARTURE,1.0,15.0,-0.0028549780780338097,1917591.3761997276,16493.123311173378,69893.12331117337
292.0,39.7280039830263,116.5176251759083,6899.4652230720385,160.30202830566873,188.21684134155385,15.0,-0.0028511726933118098,DEPARTURE,1.0,15.0,-0.0028511726933118098,1917274.848279641,16490.375129839995,69890.37512983999
294.0,39.72518815006397,116.5170965247693,6950.14125278533,160.19340367280734,188.21649913546332,15.0,-0.0028473119747189912,DEPARTURE,1.0,15.0,-0.0028473119747189912,1916958.497503929,16487.632079197614,69887.63207919762
296.0,39.722373906724094,116.51656821592823,7000.548710689348,160.08390126533436,188.21615713720493,15.0,-0.002843398929428531,DEPARTURE,1.0,15.0,-0.002843398929428531,1916642.325591135,16484.89413930703,69884.89413930703
298.0,39.71956126605639,116.51604025175416,7050.686240099419,159.97365656390235,188.21581535074668,15.0,-0.002839436944299223,DEPARTURE,1.0,15.0,-0.002839436944299223,1916326.334006865,16482.161290066288,69882.16129006629
300.0,39.71675023892455,116.51551263420498,7100.552598119636,159.86280116204074,188.21547377992874,15.0,-0.0028354296925527933,DEPARTURE,1.0,15.0,-0.0028354296925527933,1916010.523971127,16479.43351121828,69879.43351121829
302.0,39.713940834071025,116.5149853648397,7150.146653527944,159.751462795394,188.21513242842903,15.0,-0.002831381055969473,DEPARTURE,1.0,15.0,-0.002831381055969473,1915694.8964656089,16476.71078235833,69876.71078235834
304.0,39.71113305818122,116.51445844483068,7199.467384654271,159.63976537127135,188.2147912997362,15.0,-0.0028272950618770665,DEPARTURE,1.0,15.0,-0.0028272950618770665,1915379.4522408878,16473.993082941677,69873.99308294168
306.0,39.70832691594716,116.51393187497574,7248.51387725113,159.52782899862916,188.21445039712896,15.0,-0.002823175830457103,DEPARTURE,1.0,15.0,-0.002823175830457103,1915064.1918235926,16471.28039229097,69871.28039229097
308.0,39.70552241013059,116.51340565571013,7297.285322356288,159.41577001859932,188.21410972366073,15.0,-0.00281902753189911,DEPARTURE,1.0,15.0,-0.00281902753189911,1914749.1155234845,16468.572689603632,69868.57268960364
310.0,39.7027195416255,116.51287978711844,7345.7810141472155,159.3037010356695,188.21376928214812,15.0,-0.002814854352209295,DEPARTURE,1.0,15.0,-0.002814854352209295,1914434.2234404879,16465.869953959183,69865.86995395919
312.0,39.69991807721056,116.51235422529881,7393.886271895711,159.19600276905396,188.2134301146536,14.981086010707978,-0.0028106604639646093,DEPARTURE,1.0,14.981086010707978,-0.0028106604639646093,1914119.4893717067,16463.17216432649,69863.17216432649
314.0,39.697117689422626,116.51182890870498,7441.503061152102,159.0993551323182,188.21309190270642,14.943189368349067,-0.0028080530047560615,DEPARTURE,1.0,14.943189368349067,-0.0028080530047560615,1913804.8765268696,16460.47929355518,69860.47929355518
316.0,39.69431804102562,116.51130377401213,7488.584180235292,159.0182863487245,188.2127540800084,14.894053338060395,-0.0028066148153698123,DEPARTURE,1.0,14.894053338060395,-0.0028066148153698123,1913490.3470183108,16457.791313272442,69857.79131327244
318.0,39.69151879798851,116.51077875853339,7535.113486848677,158.95501857895712,188.21241635855228,14.839034987135367,-0.002805557820366289,DEPARTURE,1.0,14.839034987135367,-0.002805557820366289,1913175.8633187711,16455.10819613844,69855.10819613843
320.0,39.68871963724485,116.51025380166459,7581.093596450505,158.91035406935362,188.21207860783076,14.781445368327125,-0.002804510342016897,DEPARTURE,1.0,14.781445368327125,-0.002804510342016897,1912861.3891330173,16452.429915848963,69852.42991584896
322.0,39.68592025122944,116.50972884572862,7626.538199393406,158.8842300489007,188.21174078322426,14.723318763115207,-0.0028033347829534705,DEPARTURE,1.0,14.723318763115207,-0.0028033347829534705,1912546.8899074432,16449.756447118554,69849.75644711856
324.0,39.683120350363616,116.50920383643751,7671.467247400968,158.87606751693846,188.21140288387394,14.665888411103483,-0.002802019536204625,DEPARTURE,1.0,14.665888411103483,-0.002802019536204625,1912232.3331092421,16447.08776564994,69847.08776564994
326.0,39.68031966421319,116.50867872310704,7715.903933272609,158.88499125864388,188.2110649283123,14.609882433748501,-0.0028006154205115763,DEPARTURE,1.0,14.609882433748501,-0.0028006154205115763,1911917.6883564694,16444.42384809378,69844.42384809378
328.0,39.67751794178256,116.50815345871017,7759.87279856793,158.90996894916728,188.21072694078362,14.555709160520196,-0.0027991989495603775,DEPARTURE,1.0,14.555709160520196,-0.0027991989495603775,1911602.9274510767,16441.764672001897,69841.7646720019
330.0,39.67471495124926,116.50762799982603,7803.398555484379,158.9498990843253,188.21038894396315,14.503574043688534,-0.002797851768889359,DEPARTURE,1.0,14.503574043688534,-0.002797851768889359,1911288.0243490788,16439.110215776564,69839.11021577657
332.0,39.671910479341435,116.50710230652224,7846.505363783426,159.00366631945838,188.21005095546096,14.453553976030488,-0.002796649778446181,DEPARTURE,1.0,14.453553976030488,-0.002796649778446181,1910972.9550906192,16436.460458617777,69836.46045861777
334.0,39.669104330494946,116.5065763421961,7889.216399277004,159.07017590508235,188.20971298651529,14.405644891385437,-0.0027956579908874346,DEPARTURE,1.0,14.405644891385437,-0.0027956579908874346,1910657.6977052651,16433.815380470103,69833.8153804701
336.0,39.66629632588251,116.50605007339175,7931.553609942928,159.14837462695021,188.2093750419078,14.359792477263664,-0.0027949287109549914,DEPARTURE,1.0,14.359792477263664,-0.0027949287109549914,1910342.2321029431,16431.17496197013,69831.17496197013
338.0,39.66348630237801,116.50552346960541,7973.537593077998,159.2372629828968,188.20903712051623,14.315912124686246,-0.0027945015726515976,DEPARTURE,1.0,14.315912124686246,-0.0027945015726515976,1910026.539957574,16428.539184395384,69828.53918439538
340.0,39.66067411149881,116.50499650308637,8015.187550480179,159.3359016455509,188.20869921615827,14.273901959686963,-0.002794404541660356,DEPARTURE,1.0,14.273901959686963,-0.002794404541660356,1909710.6045882558,16425.908029615177,69825.90802961518
342.0,39.657859618355154,116.50446914863944,8056.521293500785,159.44341418207182,188.20836131852644,14.233651387671195,-0.002794655363445031,DEPARTURE,1.0,14.233651387671195,-0.002794655363445031,1909394.410841223,16423.28176485488,69823.28176485488
344.0,39.655042700626176,116.50394138343236,8097.5552796986,159.55898735272038,188.20802341410035,14.195046683515518,-0.002795263146666116,DEPARTURE,1.0,14.195046683515518,-0.002795263146666116,1909077.9449748069,16420.66086024806,69820.66086024806
346.0,39.652223247575094,116.50341318681063,8138.3046693645065,159.681869867662,188.20768548697586,14.15797465139501,-0.0027962299083554853,DEPARTURE,1.0,14.15797465139501,-0.0027962299083554853,1908761.1945487983,16418.045289087055,69818.04528908705
348.0,39.649401159112,116.50288454012124,8178.783393432795,159.81137011241844,188.2073475195937,14.12232503312792,-0.002797551990681768,DEPARTURE,1.0,14.12232503312792,-0.002797551990681768,1908444.1483191506,16415.435025462968,69815.43502546297
350.0,39.64657634490891,116.50235542654629,8219.004227395428,159.94685326719315,188.2070094933564,14.087992001736374,-0.00279922131895205,DEPARTURE,1.0,14.087992001736374,-0.00279922131895205,1908126.796138557,16412.830044200422,69812.83004420043
352.0,39.643748723569324,116.50182583094677,8258.97886761195,160.08773808218146,188.2066713891377,14.054875064662934,-0.002801226483157393,DEPARTURE,1.0,14.054875064662934,-0.002801226483157393,1907809.1288631565,16410.230320796873,69810.23032079687
354.0,39.640918221853205,116.50129573971688,8298.718007601743,160.23349348758032,188.2063331876935,14.022879563411077,-0.002803553650139179,DEPARTURE,1.0,14.022879563411077,-0.002803553650139179,1907491.1382654575,16407.63583136636,69807.63583136635
356.0,39.63808477395654,116.50076514064851,8338.231412716264,160.3836351603539,188.20599486998603,13.991916896063552,-0.002806187318611819,DEPARTURE,1.0,13.991916896063552,-0.002806187318611819,1907172.8169533978,16405.046552587548,69805.04655258755
358.0,39.635248320844376,116.50023402280584,8377.527992145215,160.53772213085097,188.20565641743354,13.961904549351907,-0.0028091109345638188,DEPARTURE,1.0,13.961904549351907,-0.0028091109345638188,1906854.1582954135,16402.462461655872,69802.46246165587
360.0,39.63240880963516,116.49970237640959,8416.615867595947,160.69535348525773,188.20531781209695,13.93276600042569,-0.0028123073854970926,DEPARTURE,1.0,13.93276600042569,-0.0028123073854970926,1906535.1563512713,16399.883536239533,69799.88353623953
362.0,39.629566193034194,116.49917019273042,8455.502438254514,160.85616520078872,188.20497903681414,13.904430530569144,-0.002815759391410211,DEPARTURE,1.0,13.904430530569144,-0.002815759391410211,1906215.8058084133,16397.309754439142,69797.30975443913
364.0,39.62672042881351,116.4986374639912,8494.194441825843,161.01982713695716,188.2046400752913,13.876832980872857,-0.0028194498104312515,DEPARTURE,1.0,13.876832980872857,-0.0028194498104312515,1905896.1019235272,16394.741094750785,69794.74109475079
366.0,39.62387147933551,116.49810418327742,8532.698011583752,161.18604019655027,188.20430091215994,13.849913471378562,-0.002823361868266261,DEPARTURE,1.0,13.849913471378562,-0.002823361868266261,1905576.040469022,16392.177536032246,69792.17753603225
368.0,39.62101931111751,116.49757034445527,8571.018729455383,161.35453366294192,188.2039615330058,13.823617099239868,-0.0028274793316711566,DEPARTURE,1.0,13.823617099239868,-0.0028274793316711566,1905255.6176841094,16389.61905747219,69789.61905747218
370.0,39.618163894434495,116.497035942097,8609.161675230096,161.52506271533477,188.2036219243766,13.79789362717155,-0.002831786631489308,DEPARTURE,1.0,13.79789362717155,-0.002831786631489308,1904934.8302301727,16387.065638562086,69787.06563856208
372.0,39.61530520295733,116.4965009714129,8647.13147202802,161.6974061199057,188.2032820737724,13.77269717036394,-0.0028362689463818924,DEPARTURE,1.0,13.77269717036394,-0.0028362689463818924,1904613.675150117,16384.51725907063,69784.51725907064
374.0,39.61244327252283,116.49596543924818,8684.931541939397,161.8680211687306,188.20294196261136,13.747985887762493,-0.002840912254328032,DEPARTURE,0.9990959388009426,13.747985887762493,-0.002840912254328032,1904292.1564707954,16381.976198373666,69781.97619837367
376.0,39.60957819084316,116.49542936215249,8722.562562099663,162.03385024691173,188.20260158476916,13.72375626791858,-0.002845682197019528,DEPARTURE,0.9973897883126938,13.72375626791858,-0.002845682197019528,1903970.2840468998,16379.44445905952,69779.44445905952
378.0,39.606710038458274,116.4948927553287,8760.022456030265,162.19513258422077,188.20226094436106,13.699820694625442,-0.0028505537549818882,DEPARTURE,0.9957314975308824,13.699820694625442,-0.0028505537549818882,1903648.0669273415,16376.921874521482,69776.92187452147
380.0,39.60383888808322,116.49435563251195,8797.307614172973,162.3522175834239,188.20192003635256,13.67587390350887,-0.0028555185560747987,DEPARTURE,0.9941186741577919,13.67587390350887,-0.0028555185560747987,1903325.5132819433,16374.40828512687,69774.40828512688
382.0,39.60096480456215,116.4938180059618,8834.413706468842,162.50550574739194,188.2015788517652,13.651738324417696,-0.002860555891572858,DEPARTURE,0.9925478241657606,13.651738324417696,-0.002860555891572858,1903002.630396277,16371.903540896483,69771.90354089648
384.0,39.59808784519487,116.49327988652394,8871.3362105566,162.65541046049023,188.2012373807648,13.627322052505292,-0.002865640527389246,DEPARTURE,0.9910149425260804,13.627322052505292,-0.002865640527389246,1902679.424708348,16369.407502691996,69769.40750269199
386.0,39.59520806027643,116.49274128373159,8908.070743286558,162.8023341335255,188.20089561437408,13.602589496272149,-0.0028707472764182285,DEPARTURE,0.9895158953950973,13.602589496272149,-0.0028707472764182285,1902355.9018692246,16366.92004244594,69766.92004244594
388.0,39.59232549374331,116.49220220592673,8944.613257590534,162.94665414019164,188.2005535453106,13.57754102060603,-0.0028758534717781004,DEPARTURE,0.9880466586647446,13.57754102060603,-0.0028758534717781004,1902032.0668156275,16364.441042800709,69764.44104280071
390.0,39.58944018385632,116.49166266038803,8980.960148419803,163.08871533675895,188.2002111682871,13.552198954246915,-0.002880940111666064,DEPARTURE,0.9866034585980833,13.552198954246915,-0.002880940111666064,1901707.9238466509,16361.970396405151,69761.97039640514
392.0,39.58655216387604,116.49112265345751,9017.108298391304,163.22882692506798,188.1998684799956,13.526598084180332,-0.002885992192403819,DEPARTURE,0.9851828466324102,13.526598084180332,-0.002885992192403819,1901383.4766996452,16359.50800503473,69759.50800503473
394.0,39.58366146270417,116.49058219066059,9053.055084480646,163.36726210509912,188.1995254789204,13.50077929906303,-0.002890998565064251,DEPARTURE,0.98378173074932,13.50077929906303,-0.002890998565064251,1901058.728622263,16357.053778643918,69757.05377864392
396.0,39.58076810547576,116.49004127681705,9088.798360500425,163.50425944841282,188.19918216507108,13.474785430239802,-0.0028959515454687335,DEPARTURE,0.9823973789490086,13.474785430239802,-0.0028959515454687335,1900733.682439,16354.60763441993,69754.60763441992
398.0,39.5778721140955,116.48949991614145,9124.336425435422,163.64002526542902,188.1988385396918,13.448658615411809,-0.0029008464095454656,DEPARTURE,0.9810274055158714,13.448658615411809,-0.0029008464095454656,1900408.3406114348,16352.169495879716,69752.16949587972
400.0,39.574973507715974,116.48895811233271,9159.667984420077,163.77473647919552,188.1984946049799,13.42243870759171,-0.0029056808641314547,DEPARTURE,0.9796697473457094,13.42243870759171,-0.0029056808641314547,1900082.7052919657,16349.73929203391,69749.73929203392
402.0,39.57207230315946,116.48841586865302,9194.792106841764,163.90854368553784,188.19815036383173,13.396162392942745,-0.002910454539858165,DEPARTURE,0.9783226352080444,13.396162392942745,-0.002910454539858165,1899756.778371189,16347.316956629185,69747.31695662919
404.0,39.56916851528627,116.48787318799687,9229.708184451458,164.0415741953968,188.19780581962272,13.369862781495312,-0.0029151685374984027,DEPARTURE,0.9769845631446212,13.369862781495312,-0.0029151685374984027,1899430.5615192861,16344.902427472565,69744.90242747257
406.0,39.566262157314114,116.48733007295081,9264.41589125788,164.17393493480114,188.19746097602507,13.343569306097262,-0.002919825032122958,DEPARTURE,0.9756542580460317,13.343569306097262,-0.002919825032122958,1899104.056221895,16342.495645836236,69742.49564583623
408.0,39.56335324109311,116.48678652584496,9298.915146226536,164.3057151320153,188.19711583686066,13.317307815562067,-0.002924426942868763,DEPARTURE,0.9743306506519882,13.317307815562067,-0.002924426942868763,1898777.2638110132,16340.096555938422,69740.09655593842
410.0,39.56044177734138,116.48624254879711,9333.206079297426,164.43698875758034,188.1967704059861,13.291100783768924,-0.002928977664268473,DEPARTURE,0.9730128486798466,13.291100783768924,-0.002928977664268473,1898450.1854914613,16337.705104494275,69737.70510449428
412.0,39.557527775845784,116.4856981437503,9367.289000900575,164.56781670664137,188.19642468720596,13.264967581693,-0.002933480851083914,DEPARTURE,0.9717001124241963,13.264967581693,-0.002933480851083914,1898122.8223634332,16335.321240329948,69735.32124032994
414.0,39.55461124563229,116.48515331250472,9401.164374934287,164.69824872797167,188.19607868420985,13.238924777045636,-0.0029379402523801446,DEPARTURE,0.970391832933586,13.238924777045636,-0.0029379402523801446,1897795.1754416397,16332.944914052921,69732.94491405292
416.0,39.551692195109936,116.48460805674468,9434.832795039896,164.8283251131696,188.19573240052878,13.212986438558705,-0.0029423595863136143,DEPARTURE,0.9690875127202829,13.212986438558705,-0.0029423595863136143,1897467.2456714802,16330.576077771806,69730.57607777181
418.0,39.54877063219206,116.48406237806127,9468.294963932345,164.958078164534,188.19538583950745,13.187164430508538,-0.0029467424492821692,DEPARTURE,0.9677867488683036,13.187164430508538,-0.0029467424492821692,1897139.0339426594,16328.214684859307,69728.21468485931
420.0,39.54584656439793,116.4835162779714,9501.551675509656,165.08753346245723,188.19503900428896,13.161468688951764,-0.002951092251507248,DEPARTURE,0.9664892183546598,13.161468688951764,-0.002951092251507248,1896810.5411006084,16325.860689752535,69725.86068975253
422.0,39.54291999893773,116.48296975793376,9534.60379945316,165.21671095374649,188.19469189780872,13.135907475128779,-0.002955412176959271,DEPARTURE,0.9651946653754273,13.135907475128779,-0.002955412176959271,1896481.7679560336,16323.514047785447,69723.51404778544
424.0,39.53999094278336,116.48242281936199,9567.452268035226,165.3456258817453,188.19434452279606,13.110487604143906,-0.002959705156712289,DEPARTURE,0.9639028904625349,13.110487604143906,-0.002959705156712289,1896152.715292865,16321.174715048777,69721.17471504878
426.0,39.537059402727145,116.48187546363573,9600.098064865857,165.47428957792206,188.1939968817805,13.085214648754672,-0.00296397385994851,DEPARTURE,0.9626137411825467,13.085214648754672,-0.00296397385994851,1895823.3838748578,16318.842648273378,69718.84264827338
428.0,39.53412538543037,116.4813276921097,9632.542215329653,165.6027101330239,188.1936489771019,13.060093119181218,-0.0029682206915708775,DEPARTURE,0.961327104220779,13.060093119181218,-0.0029682206915708775,1895493.774451041,16316.517804733405,69716.5178047334
430.0,39.531188897463274,116.48077950612115,9664.785778487405,165.7308929641656,188.19330081092292,13.035126620481845,-0.0029724477991948106,DEPARTURE,0.9600428986697608,13.035126620481845,-0.0029724477991948106,1895163.8877602129,16314.200142166292,69714.20014216629
432.0,39.528249945337805,116.48023090699604,9696.82984023999,165.8588412924653,188.1929523852426,13.010317989374535,-0.002976657083934242,DEPARTURE,0.9587610703583436,13.010317989374535,-0.002976657083934242,1894833.7245346212,16311.889618706828,69711.88961870683
434.0,39.52530853553434,116.479681896054,9728.675507575259,165.9865565441337,188.1926037019109,12.985669412517726,-0.0029808502142572024,DEPARTURE,0.9574815870753466,12.985669412517726,-0.0029808502142572024,1894503.2855029625,16309.586192833096,69709.5861928331
436.0,39.52236467452338,116.47913247461241,9760.323903740282,166.1140386863238,188.19225476264327,12.961182528266207,-0.0029850286432946405,DEPARTURE,0.9562044345586628,12.961182528266207,-0.0029850286432946405,1894172.5713928204,16307.289823322328,69707.28982332232
438.0,39.51941836878301,116.47858264398967,9791.77616420143,166.2412865075771,188.19190556903453,12.93685851383913,-0.002989193626618203,DEPARTURE,0.9549296131367617,12.93685851383913,-0.002989193626618203,1893841.5829326296,16305.000469215025,69705.00046921503
440.0,39.516469624812885,116.47803240550779,9823.033433272982,166.36829785137215,188.19155612257254,12.912698159710189,-0.0029933462392932597,DEPARTURE,0.9536571349242289,12.912698159710189,-0.0029933462392932597,1893510.3208532454,16302.718089785965,69702.71808978597
442.0,39.51351844914531,116.47748176049448,9854.096861311324,166.49506981009606,188.19120642465086,12.888701932877966,-0.0029974873936566837,DEPARTURE,0.9523870214862782,12.888701932877966,-0.0029974873936566837,1893178.7858891862,16300.44264452091,69700.44264452091
444.0,39.51056484835393,116.4769307102848,9884.967602386296,166.62159888570974,188.1908564765806,12.864870030512613,-0.0030016178570946295,DEPARTURE,0.9511193018990391,12.864870030512613,-0.0030016178570946295,1892846.9787796133,16298.174093098034,69698.17409309803
446.0,39.50760882906042,116.47637925622236,9915.646812353993,166.74788112245955,188.19050627960115,12.84120242531339,-0.0030057382664097076,DEPARTURE,0.9498540111429022,12.84120242531339,-0.0030057382664097076,1892514.9002690814,16295.912395373241,69695.91239537325
448.0,39.5046503979396,116.47582739966028,9946.135647266521,166.8739122161865,188.19015583489022,12.817698903756341,-0.003009849144149257,DEPARTURE,0.9485911887754042,12.817698903756341,-0.003009849144149257,1892182.5511081116,16293.657511368681,69693.65751136868
450.0,39.50168956172314,116.4752751419619,9976.435262063835,166.99968760409226,188.18980514357247,12.794359098266451,-0.0030139509120772345,DEPARTURE,0.9473308778381345,12.794359098266451,-0.0030139509120772345,1891849.9320536104,16291.409401263883,69691.40940126388
452.0,39.49872632720226,116.4747224845013,10006.546809501197,167.12520253822268,188.18945420672765,12.771182514215532,-0.003018043903367129,DEPARTURE,0.9460731239590771,12.771182514215532,-0.003018043903367129,1891517.0438691727,16289.168025389028,69689.16802538902
454.0,39.49576070122949,116.47416942866359,10036.471439272995,167.2504521454188,188.18910302539754,12.748168552527106,-0.0030221283740274885,DEPARTURE,0.9448179746177728,12.748168552527106,-0.0030221283740274885,1891183.8873252745,16286.93334421996,69686.93334421996
456.0,39.49279269071974,116.4736159758451,10066.210297299798,167.37543147604597,188.18875160059238,12.725316528562157,-0.0030262045128353066,DEPARTURE,0.9435654785458117,12.725316528562157,-0.0030262045128353066,1890850.4631993999,16284.705318374601,69684.7053183746
458.0,39.48982230265074,116.47306212745353,10095.764525150842,167.5001355434399,188.1883999332962,12.702625687864739,-0.0030302724513546764,DEPARTURE,0.9423156852395399,12.702625687864739,-0.0030302724513546764,1890516.772276089,16282.483908610506,69682.4839086105
460.0,39.486849544063084,116.47250788490783,10125.135259578596,167.62455935569082,188.18804802447184,12.680095219263004,-0.0030343322708858977,DEPARTURE,0.9410686445656006,12.680095219263004,-0.0030343322708858977,1890182.8153469397,16280.269075823324,69680.26907582332
462.0,39.48387442205986,116.47195324963825,10154.323632145886,167.74869794111962,188.18769587506483,12.657724265748381,-0.0030383840116314786,DEPARTURE,0.9398244064430914,12.657724265748381,-0.0030383840116314786,1889848.593210567,16278.06078104598,69678.06078104598
464.0,39.480896943805995,116.47139822308613,10183.33076892928,167.87254636857318,188.1873434860074,12.635511933492406,-0.0030424276757230473,DEPARTURE,0.9385830205888035,12.635511933492406,-0.0030424276757230473,1889514.1066725315,16275.858985448438,69675.85898544843
466.0,39.47791711652733,116.47084280670377,10212.157790285135,167.9960997634751,188.18699085822126,12.61345729930611,-0.0030464632367710465,DEPARTURE,0.9373445363142678,12.61345729930611,-0.0030464632367710465,1889179.3565452353,16273.6636503379,69673.6636503379
468.0,39.47493494750958,116.47028700195423,10240.805810667045,168.11935332040838,188.18663799262058,12.591559416799738,-0.003050490641186343,DEPARTURE,0.9361090023652487,12.591559416799738,-0.003050490641186343,1888844.3436478018,16271.474737159358,69671.47473715935
470.0,39.4719504440971,116.46973081031106,10269.27593848532,168.24230231287245,188.18628489011417,12.569817321460373,-0.0030545098141061544,DEPARTURE,0.9348764667959159,12.569817321460373,-0.0030545098141061544,1888509.068805941,16269.292207496417,69669.29220749642
472.0,39.468963613691564,116.46917423325809,10297.569276000746,168.36494210074395,188.18593155160738,12.54823003483044,-0.003058520663358877,DEPARTURE,0.9336469768712752,12.54823003483044,-0.003058520663358877,1888173.5328517999,16267.116023072298,69667.1160230723
474.0,39.46597446375058,116.46861727228911,10325.686919246258,168.48726813587803,188.18557797800395,12.52679656794074,-0.003062523081169388,DEPARTURE,0.9324205789925601,12.52679656794074,-0.003062523081169388,1887837.736623805,16264.946145751002,69664.946145751
476.0,39.4629830017862,116.46805992890766,10353.629957971236,168.60927596620843,188.18522417020716,12.505515924126756,-0.0030665169487633648,DEPARTURE,0.9311973186412195,12.505515924126756,-0.0030665169487633648,1887501.6809664979,16262.78253753857,69662.78253753857
478.0,39.459989235363466,116.46750220462673,10381.399475604114,168.73096123863974,188.18487012912112,12.48438710133573,-0.0030705021372199326,DEPARTURE,0.9299772403379154,12.48438710133573,-0.0030705021372199326,1887165.3667303687,16260.6251605844,69660.6251605844
480.0,39.45699317209884,116.4669441009684,10408.99654922976,168.85231970097217,188.18451585565177,12.463409094014235,-0.0030744785097311933,DEPARTURE,0.9287603876136024,12.463409094014235,-0.0030744785097311933,1886828.7947716825,16258.473977182626,69658.47397718263
482.0,39.453994819658696,116.46638561946368,10436.422249578718,168.97334720305435,188.1841613507076,12.442580894650785,-0.0030784459239470152,DEPARTURE,0.9275468029902779,12.442580894650785,-0.0030784459239470152,1886491.9659523075,16256.32894977348,69656.32894977348
484.0,39.45099418575777,116.46582676165207,10463.67764102596,169.0940396973231,188.18380661520035,12.421901495035495,-0.003082404232699787,DEPARTURE,0.9263365279694562,12.421901495035495,-0.003082404232699787,1886154.8811395448,16254.190040944688,69654.1900409447
486.0,39.44799127815762,116.46526752908137,10490.763781597214,169.21439323885957,188.18345165004544,12.401369887287998,-0.0030863532863492082,DEPARTURE,0.9251296030267687,12.401369887287998,-0.0030863532863492082,1885817.5412059498,16252.05721343283,69652.05721343282
488.0,39.4449861046651,116.4647079233074,10517.68172298131,169.33440398506545,188.18309645616245,12.380985064696077,-0.0030902929325691275,DEPARTURE,0.923926067611404,12.380985064696077,-0.0030902929325691275,1885479.9470291643,16249.930430124683,69649.93043012469
490.0,39.441978673130805,116.46414794589361,10544.432510547302,169.4540681950437,188.18274103447547,12.360746022399924,-0.0030942230172428253,DEPARTURE,0.9227259601493452,12.360746022399924,-0.0030942230172428253,1885142.0994917422,16247.809654058534,69647.80965405854
492.0,39.43896899144762,116.46358759841091,10571.017183365324,169.57338222875114,188.18238538591322,12.340651757950793,-0.0030981433868930708,DEPARTURE,0.9215293180495626,12.340651757950793,-0.0030981433868930708,1884803.9994809837,16245.694848425455,69645.69484842545
494.0,39.43595706754917,116.4630268824373,10597.436774230375,169.69234254597677,188.18202951140933,12.32070127176762,-0.003102053887232614,DEPARTURE,0.9203361777124882,12.32070127176762,-0.003102053887232614,1884465.6478887652,16243.585976570537,69643.58597657054
496.0,39.4329429094084,116.46246579955766,10623.692309688378,169.81094570518908,188.18167341190238,12.30089356751094,-0.0031059543649973875,DEPARTURE,0.919146574540232,12.30089356751094,-0.0031059543649973875,1884127.0456113757,16241.483001994071,69641.48300199407
498.0,39.4299265250361,116.46190435136343,10649.784810063995,169.92918836228645,188.18131708833604,12.28122765238988,-0.003109844668074402,DEPARTURE,0.9179605429481088,12.28122765238988,-0.003109844668074402,1883788.193549352,16239.385888352692,69639.3858883527
