time,lat,lon,alt,tas,heading,pitch,roll,flight_phase,throttle,target_pitch,target_roll,dist_to_dest,fuel,mass
0.0,31.143376517631776,121.8051710433394,10.0,2.045733008608743,267.6911150024203,0.0,0.0,TAXI,0.3,0.0,0.0,1461255.2310262443,16945.80067098851,70345.80067098851
2.0,31.143373554559936,121.8050851782586,10.0,4.08916878302777,267.6911150024203,0.0,0.0,TAXI,0.3,0.0,0.0,1461247.0526890608,16944.602423598822,70344.60242359882
4.0,31.143369113483676,121.80495648298051,10.0,6.12887955561505,267.6911150024203,0.0,0.0,TAXI,0.3,0.0,0.0,1461234.794930621,16943.40525661635,70343.40525661634
6.0,31.143359747877014,121.80468508272452,10.0,12.924946971394888,267.6911150024203,0.0,0.0,TAKEOFF_ROLL,1.0,0.0,0.0,1461208.9450387761,16939.41829480052,70339.41829480052
8.0,31.143345486616624,121.8042718143396,10.0,19.681163320763936,267.6911150024203,0.0,0.0,TAKEOFF_ROLL,1.0,0.0,0.0,1461169.5827163763,16935.443310394392,70335.44331039439
10.0,31.143331254505178,121.80385939070602,0.0,32.7531839424017,267.6911150024203,0.0,0.0,TAKEOFF_ROLL,1.0,0.0,0.0,1461130.3008476286,16931.480233164333,70331.48023316433
12.0,31.143305929240192,121.80312550557197,0.0,45.64990716293535,267.6911150024203,0.0,0.0,TAKEOFF_ROLL,1.0,0.0,0.0,1461060.4009118786,16927.537983254842,70327.53798325485
14.0,31.14327043040463,121.80209680723637,0.0,58.314978752984636,267.6911150024203,0.0,0.0,TAKEOFF_ROLL,1.0,0.0,0.0,1460962.4210412644,16923.618472720384,70323.61847272038
16.0,31.143225294613025,121.80078884626063,0.0,70.70298156568494,267.6911150024203,0.0,0.0,TAKEOFF_ROLL,1.0,0.0,0.0,1460837.8423413073,16919.721293115093,70319.72129311509
18.0,31.14317093577713,121.79921361753969,0.0,82.7724431734989,267.6911150024203,0.0,0.0,TAKEOFF_ROLL,1.0,0.0,0.0,1460687.8072469404,16915.845955914036,70315.84595591403
20.0,31.14310751892768,121.79737590386931,0.0,93.79149524809242,267.6911150024203,6.4,0.0,ROTATION,1.0,12.0,0.0,1460512.7712599398,16911.991899468507,70311.9918994685
22.0,31.14303798765042,121.79536100583917,23.090541822759274,96.64826192659967,267.6911150024203,12.0,0.0,ROTATION,1.0,12.0,0.0,1460320.8589308343,16908.157271706787,70308.15727170679
24.0,31.143053478654522,121.79336737402838,55.94265937950662,96.28177383835833,270.52015537829595,14.969380870310289,11.0,INITIAL_CLIMB,0.7273381807340032,14.969380870310289,30.0,1460131.3529504351,16905.375491917475,70305.37549191748
26.0,31.14306887966812,121.79138532332225,87.0896536271432,95.59619287028262,270.52015537829595,15.0,0.0,INITIAL_CLIMB,0.7310030616164166,15.0,-4.255533555001023,1459942.948077871,16902.584406754635,70302.58440675464
28.0,31.143058909797066,121.78941373510685,117.59840767035594,95.051078846203,269.6614843824452,15.0,-4.259830097456813,INITIAL_CLIMB,0.7378588712971738,15.0,-4.259830097456813,1459755.4235380895,16899.77121148171,70299.77121148171
30.0,31.14303130021341,121.78745134551787,147.55292607170003,94.58565038416774,269.0582278982885,15.0,-2.97527134992896,INITIAL_CLIMB,0.74331001153797,15.0,-2.97527134992896,1459568.693961607,16896.941407626287,70296.94140762629
32.0,31.14299146611147,121.78549684247669,176.99824463902976,94.18860529658426,268.6358983338473,15.0,-2.073240434136011,INITIAL_CLIMB,0.7479642961583226,15.0,-2.073240434136011,1459382.6589873708,16894.098097670907,70294.09809767091
34.0,31.14294317496515,121.78354902523034,205.9886971575956,93.85139713185282,268.3407654387491,15.0,-1.4421854166441221,INITIAL_CLIMB,0.7519347470341574,15.0,-1.4421854166441221,1459197.2214270346,16891.243934074846,70291.24393407485
36.0,31.14288904621833,121.78160683375528,234.57468904522037,93.56584833227853,268.1349427963915,15.0,-1.0016364069310555,INITIAL_CLIMB,0.7553068286814718,15.0,-1.0016364069310555,1459012.2923043352,16888.3812312712,70288.3812312712
38.0,31.142830896569677,121.77966935245354,262.802040336343,93.32471354774722,267.9916423894637,15.0,-0.6948515165361471,INITIAL_CLIMB,0.7581623166772147,15.0,-0.6948515165361471,1458827.7927585451,16885.51198138026,70285.51198138026
40.0,31.142769982654066,121.77773579897705,290.7113085754414,93.12163039770272,267.89198633970426,15.0,-0.48170995424197827,INITIAL_CLIMB,0.7605736645225277,15.0,-0.48170995424197827,1458643.654073732,16882.63789175989,70282.63789175989
42.0,31.142707171288546,121.77580550856601,318.33792187349025,92.95107360341905,267.8227149697957,15.0,-0.3339375726306173,INITIAL_CLIMB,0.7626044960229728,15.0,-0.3339375726306173,1458459.8169562074,16879.76042027461,70279.76042027462
44.0,31.14264305869319,121.77387791789194,345.71256991491225,92.8082749278348,267.7745461416662,15.0,-0.23167454782912955,INITIAL_CLIMB,0.7643100639658095,15.0,-0.23167454782912955,1458276.2305354893,16876.8808085557,70276.8808085557
46.0,31.14257805375289,121.7719525501196,372.861698535071,92.68913723520522,267.741002333001,15.0,-0.1610183121264015,INITIAL_CLIMB,0.765738050721652,15.0,-0.1610183121264015,1458092.851319354,16874.000111974125,70274.00011197412
48.0,31.142512435999613,121.77002900174847,399.8080180950938,92.59015059810163,267.71757578868875,15.0,-0.11226691894421492,INITIAL_CLIMB,0.7669294276479477,15.0,-0.11226691894421492,1457909.6422042556,16871.119226139177,70271.11922613918
50.0,31.14244639587744,121.76810693129342,426.57098548615016,92.50831469565098,267.7011371597278,15.0,-0.07866869180762137,INITIAL_CLIMB,0.7679192940189836,15.0,-0.07866869180762137,1457726.5715807783,16868.238910032116,70268.23891003212
52.0,31.142380062630227,121.76618604966052,453.16724291489265,92.44106903976116,267.6895185721547,15.0,-0.05553652235792583,INITIAL_CLIMB,0.7687376530434902,15.0,-0.05553652235792583,1457543.6125444656,16865.359806042194,70265.3598060422
54.0,31.142313523568873,121.76426611200944,479.61100842781656,92.38623129381783,267.6812209242049,15.0,-0.03962340563100497,INITIAL_CLIMB,0.7694101096023884,15.0,-0.03962340563100497,1457360.742209103,16862.482457226975,70262.48245722697
56.0,31.142246837351678,121.76234691088828,505.91441881971565,92.34194332518452,267.67520916638995,15.0,-0.028684032896791223,INITIAL_CLIMB,0.7699584870618217,15.0,-0.028684032896791223,1457177.94111397,16859.607322125572,70259.60732212558
58.0,31.14217748631138,121.76035338949167,519.097031387804,95.16881997763947,267.6724475048293,15.0,-0.0211681604976377,DEPARTURE,1.0,15.0,-0.0211681604976377,1456988.0606113954,16855.87870115862,70255.87870115862
60.0,31.142105182310402,121.75827800247978,529.6680270547474,98.98062796816585,267.66906793926614,13.280382090661703,-0.018583871124207008,DEPARTURE,1.0,13.280382090661703,-0.018583871124207008,1456790.3818834035,16852.157753581167,70252.15775358117
62.0,31.142029904638342,121.75611998433547,541.4341357621114,102.94321572174799,267.6661307661863,12.621979620713976,-0.015134329409875136,DEPARTURE,1.0,12.621979620713976,-0.015134329409875136,1456584.8320240334,16848.445614138804,70248.44561413881
64.0,31.141951963585107,121.75388808930266,558.8405322832396,106.649330701628,267.66354701900343,12.643348107759904,-0.012410903770842197,DEPARTURE,1.0,12.643348107759904,-0.012410903770842197,1456372.2448738075,16844.742788198506,70244.7427881985
66.0,31.1418717558464,121.75159332954807,582.0660863535659,109.90304517744433,267.6614708207916,13.392723742409995,-0.010273610344995632,DEPARTURE,1.0,13.392723742409995,-0.010273610344995632,1456153.669376406,16841.050018019447,70241.05001801945
68.0,31.14178963139699,121.74924548163867,610.648122549372,112.7259069800407,267.6597323960396,14.146632627285811,-0.00894557539928087,DEPARTURE,1.0,14.146632627285811,-0.00894557539928087,1455930.0367716984,16837.36774107072,70237.36774107072
70.0,31.14170587145472,121.74685243815638,643.8609336249723,115.17252278799005,267.6582092224005,14.814373996754977,-0.008164901325841356,DEPARTURE,1.0,14.814373996754977,-0.008164901325841356,1455702.0988395524,16833.696329551076,70233.69632955108
72.0,31.141620514067633,121.7444151301282,678.820234161952,117.38605750447576,267.6568918108698,15.0,-0.007741922606271601,DEPARTURE,1.0,15.0,-0.007741922606271601,1455469.9442739724,16830.03609285542,70230.03609285541
74.0,31.141533625590814,121.74193545650624,715.3758765063083,119.50130021318137,267.6556165400246,15.0,-0.007661945837895701,DEPARTURE,1.0,15.0,-0.007661945837895701,1455233.7539389362,16826.386977768518,70226.38697776852
76.0,31.141445269230214,121.7394152432127,753.4496589636188,121.52646568330395,267.65436278356685,15.0,-0.007678138549238156,DEPARTURE,1.0,15.0,-0.007678138549238156,1454993.7017400307,16822.749129496355,70222.74912949635
78.0,31.14135550253613,121.7368561632101,792.9455080989577,123.4669473334124,267.6531192524927,15.0,-0.007758194940322483,DEPARTURE,1.0,15.0,-0.007758194940322483,1454749.9470124154,16819.122689734126,70219.12268973413
80.0,31.141264379684667,121.7342598000771,833.788121900538,125.32822299085967,267.6518769756601,15.0,-0.007883921235361413,DEPARTURE,1.0,15.0,-0.007883921235361413,1454502.6405766732,16815.507788199524,70215.50778819952
82.0,31.141171951178244,121.73162763643171,875.9023396217224,127.11476671056822,267.6506303921862,15.0,-0.008040659005558837,DEPARTURE,1.0,15.0,-0.008040659005558837,1454251.9236365769,16811.90454720855,70211.90454720854
84.0,31.14107826470875,121.72896107739929,919.2221551033591,128.83073517494466,267.6493753894893,15.0,-0.008218936454767345,DEPARTURE,1.0,15.0,-0.008218936454767345,1453997.9300145963,16808.313080078948,70208.31308007895
86.0,31.140983365258837,121.72626145217396,963.6846153697848,130.47975836156257,267.6481093352531,15.0,-0.00841150867981355,DEPARTURE,1.0,15.0,-0.00841150867981355,1453740.7863008191,16804.733492573305,70204.7334925733
88.0,31.14088729552867,121.72353002552262,1009.2321807764243,132.06515988035412,267.64683037685114,15.0,-0.008613406068775475,DEPARTURE,1.0,15.0,-0.008613406068775475,1453480.6129488144,16801.165882711866,70201.16588271187
90.0,31.140790096090125,121.72076800154478,1055.8104704770649,133.5899257735202,267.64553736157814,15.0,-0.00882087535097753,DEPARTURE,1.0,15.0,-0.00882087535097753,1453217.524633843,16797.610341443375,70197.61034144337
92.0,31.140691805639747,121.71797653052273,1103.3688713547754,135.056796695116,267.6442295456543,15.0,-0.009031257858595154,DEPARTURE,1.0,15.0,-0.009031257858595154,1452951.6309053933,16794.066952791778,70194.06695279178
94.0,31.140592461136848,121.71515671253951,1151.8595251415331,136.46827513399,267.64290653189283,15.0,-0.009242548199722478,DEPARTURE,1.0,15.0,-0.009242548199722478,1452683.036531835,16790.535794280237,70190.53579428024
96.0,31.140492097971492,121.7123096020758,1201.2374294802717,137.8266727379198,267.6415681366253,15.0,-0.009453298393935938,DEPARTURE,1.0,15.0,-0.009453298393935938,1452411.8419383017,16787.016937154865,70187.01693715487
98.0,31.140390750076936,121.7094362110538,1251.4599024006955,139.13412414452688,267.64021435183327,15.0,-0.009662414973007571,DEPARTURE,1.0,15.0,-0.009662414973007571,1452138.143496633,16783.51044670544,70183.51044670545
100.0,31.14028845004946,121.7065375121548,1302.4865332863078,140.3926149759367,267.63884528024465,15.0,-0.009869100062616099,DEPARTURE,1.0,15.0,-0.009869100062616099,1451862.0338413946,16780.0163824964,70180.0163824964
102.0,31.140185229238135,121.70361444129897,1354.2788614883807,141.6039947975904,267.6374611138817,15.0,-0.010072751619674136,DEPARTURE,1.0,15.0,-0.010072751619674136,1451583.6021060783,16776.534798631812,70176.53479863181
104.0,31.140081117834495,121.7006679001551,1406.800288961974,142.76999528898995,267.636062100946,15.0,-0.010272929471312864,DEPARTURE,1.0,15.0,-0.010272929471312864,1451302.9341621606,16773.06574397377,70173.06574397377
106.0,31.13997614494442,121.69769875815457,1460.0158684986832,143.89224089480885,267.6346485339845,15.0,-0.010469303797094653,DEPARTURE,1.0,15.0,-0.010469303797094653,1451020.1128109328,16769.609262370825,70169.60926237082
108.0,31.139870338657584,121.69470785445394,1513.892214011712,144.9722613618843,267.6332207324396,15.0,-0.01066163590471092,DEPARTURE,1.0,15.0,-0.01066163590471092,1450735.2179704364,16766.16539285882,70166.16539285882
110.0,31.139763726105613,121.69169599958224,1568.3973512891978,146.01150016808094,267.63177903621767,15.0,-0.010849750591972906,DEPARTURE,1.0,15.0,-0.010849750591972906,1450448.326832368,16762.734169862204,70162.7341698622
112.0,31.139656333517316,121.68866397701501,1623.5006368502025,147.01132354388696,267.6303237962837,15.0,-0.011033525279344758,DEPARTURE,1.0,15.0,-0.011033525279344758,1450159.5140119991,16759.315623377108,70159.3156233771
114.0,31.13954818626635,121.68561254453634,1679.172647521726,147.97302708385334,267.6288553712195,15.0,-0.01121287472309973,DEPARTURE,1.0,15.0,-0.01121287472309973,1449868.8516779046,16755.909779151036,70155.90977915103
116.0,31.139439308916092,121.6825424355274,1735.3851102175865,148.89784244211475,267.62737412208435,15.0,-0.011387744831210966,DEPARTURE,1.0,15.0,-0.011387744831210966,1449576.4096746931,16752.51665884946,70152.51665884946
118.0,31.13932972525922,121.679454360106,1792.1108172505112,149.7869425309984,267.62588041061844,15.0,-0.011558103984384616,DEPARTURE,1.0,15.0,-0.011558103984384616,1449282.2556315428,16749.13628021761,70149.13628021762
120.0,31.139219458354837,121.67634900619994,1849.3235665184975,150.64144661183207,267.6243745964216,15.0,-0.011723939483317736,DEPARTURE,1.0,15.0,-0.011723939483317736,1448986.4550644273,16745.768657232195,70145.7686572322
122.0,31.13910853056174,121.67322704051176,1906.9980947471067,151.46242441272835,267.62285703606,15.0,-0.011885252503901711,DEPARTURE,1.0,15.0,-0.011885252503901711,1448689.0714680105,16742.413800247985,70142.41380024799
124.0,31.138996963569614,121.67008910942621,1965.110026741983,152.25090007757095,267.62132808152825,15.0,-0.01204205602920183,DEPARTURE,1.0,15.0,-0.01204205602920183,1448390.166402067,16739.071716136346,70139.07171613634
126.0,31.13888477842735,121.66693583983644,2023.6358216119754,153.00785545888462,267.6197880798487,15.0,-0.012194371852814356,DEPARTURE,1.0,15.0,-0.012194371852814356,1448089.7995701751,16735.742408418693,70135.7424084187
128.0,31.138771995569577,121.6637678399213,2082.552729648893,153.73423323463214,267.6182373722547,15.0,-0.012342229353436096,DEPARTURE,1.0,15.0,-0.012342229353436096,1447788.0288937453,16732.425877393296,70132.4258773933
130.0,31.13865863484103,121.66058569986029,2141.8387482358744,154.4309395690942,267.61667629405474,15.0,-0.012485663677779257,DEPARTURE,1.0,15.0,-0.012485663677779257,1447484.9105801112,16729.12212025732,70129.12212025732
132.0,31.138544715519398,121.65738999250708,2201.4725850588457,155.09884661119287,267.6151051742245,15.0,-0.012624714993989983,DEPARTURE,1.0,15.0,-0.012624714993989983,1447180.4991866767,16725.83113122324,70125.83113122324
134.0,31.138430256336488,121.65418127401422,2261.433621419158,155.73879466791942,267.6135243354104,15.0,-0.012759427368621346,DEPARTURE,1.0,15.0,-0.012759427368621346,1446874.8476804136,16722.552901630843,70122.55290163084
136.0,31.138315275498105,121.65096008442275,2321.7018806835335,156.3515942353376,267.61193409375375,15.0,-0.012889848296651962,DEPARTURE,1.0,15.0,-0.012889848296651962,1446568.0074940089,16719.287420054403,70119.2874200544
138.0,31.13819979070258,121.64772694821272,2382.2579973726224,156.93802779294748,267.61033475896494,15.0,-0.013016027987390544,DEPARTURE,1.0,15.0,-0.013016027987390544,1446260.0285782989,16716.03467240582,70116.03467240582
140.0,31.138083819158233,121.64448237482401,2443.083189952017,157.4988514763813,267.60872663427836,15.0,-0.01313801905948253,DEPARTURE,1.0,15.0,-0.01313801905948253,1445950.9594518696,16712.79464203356,70112.79464203356
142.0,31.137967377599733,121.64122685914539,2504.1592345047497,158.03479657433607,267.60711001655903,15.0,-0.013255876075703554,DEPARTURE,1.0,15.0,-0.013255876075703554,1445640.8472476297,16709.56730981793,70109.56730981792
144.0,31.13785048230354,121.63796088197813,2565.468441134913,158.54657092285697,267.6054851963309,15.0,-0.013369655329199759,DEPARTURE,1.0,15.0,-0.013369655329199759,1445329.7377569648,16706.352654262635,70106.35265426264
146.0,31.137733149102456,121.63468491047347,2626.9936313332455,159.03486016668631,267.6038524578954,15.0,-0.01347941453568069,DEPARTURE,1.0,15.0,-0.01347941453568069,1445017.6754713967,16703.150651583048,70103.15065158304
148.0,31.13761539339937,121.63139939854823,2688.7181174038615,159.500328934492,267.60221207939895,15.0,-0.013585212674996683,DEPARTURE,1.0,15.0,-0.013585212674996683,1444704.7036221647,16699.961275791167,70099.96127579117
150.0,31.137497230180276,121.62810478727857,2750.6256828453297,159.9436219118046,267.60056433295307,15.0,-0.013687109777805517,DEPARTURE,1.0,15.0,-0.013687109777805517,1444390.8642177219,16696.784498777575,70096.78449877758
152.0,31.137378674026614,121.6248015052749,2812.7005643228085,160.36536484181278,267.59890948472145,15.0,-0.013785166805860172,DEPARTURE,1.0,15.0,-0.013785166805860172,1444076.1980794386,16693.620290390474,70093.62029039048
154.0,31.137259739126947,121.62148996903815,2874.9274345413096,160.76616544611957,267.5972477950366,15.0,-0.013879445494865195,DEPARTURE,1.0,15.0,-0.013879445494865195,1443760.7448755319,16690.468618511983,70090.46861851198
156.0,31.13714043928808,121.61817058329976,2937.291386374645,161.14661428500204,267.59557951849496,15.0,-0.013970008260002942,DEPARTURE,1.0,15.0,-0.013970008260002942,1443444.543153438,16687.329449131823,70087.32944913182
158.0,31.137020787945634,121.61484374134574,2999.7779178211745,161.50728555401219,267.5939049040678,15.0,-0.01405691807809717,DEPARTURE,1.0,15.0,-0.01405691807809717,1443127.6303706763,16684.202746418505,70084.20274641851
160.0,31.1369007981741,121.61150982532641,3062.3729179717952,161.848737829698,267.592224195198,15.0,-0.014140238407463812,DEPARTURE,1.0,15.0,-0.014140238407463812,1442810.0429243431,16681.08847278817,70081.08847278816
162.0,31.13678049221572,121.6081694710454,3125.0576872012825,162.15867456101037,267.5905374963831,15.0,-0.014220033095313056,DEPARTURE,0.9975826217030197,15.0,-0.014220033095313056,1442491.841374836,16677.987653869586,70077.98765386958
164.0,31.13665989390646,121.60482335664706,3187.805715439853,162.4343633386529,267.58884523066047,15.0,-0.014295959331661834,DEPARTURE,0.9944832543898959,15.0,-0.014295959331661834,1442173.0903165464,16674.902334700193,70074.9023347002
166.0,31.13653902524284,121.60147210792528,3250.595148596757,162.67870248777854,267.5871473673675,15.0,-0.014368119129244405,DEPARTURE,0.9917263666134707,15.0,-0.014368119129244405,1441853.8493574853,16671.831392788652,70071.83139278865
168.0,31.136417906272467,121.59811629501665,3313.4040613248826,162.8942885552955,267.58544417298873,15.0,-0.014435974051991707,DEPARTURE,0.9892829751222143,15.0,-0.014435974051991707,1441534.1728042904,16668.773804015862,70068.77380401586
170.0,31.13629655545879,121.59475644281225,3376.213600150286,163.0835350707587,267.58373579476773,15.0,-0.014499474641610277,DEPARTURE,0.9871271144470446,15.0,-0.014499474641610277,1441214.1106539727,16665.728632070193,70065.7286320702
172.0,31.136174989675954,121.59139303072114,3439.005455316178,163.24862294490495,267.5820225341832,15.0,-0.014558427555243725,DEPARTURE,0.9852346492924127,15.0,-0.014558427555243725,1440893.70857138,16662.695022099335,70062.69502209933
174.0,31.13605322444482,121.58802649940785,3501.7634254605655,163.3915689478944,267.58030462751475,15.0,-0.014612906284611427,DEPARTURE,0.9835837705509501,15.0,-0.014612906284611427,1440573.0085309604,16659.672192614333,70059.67219261434
176.0,31.135931273976738,121.58465725200317,3564.4721002966025,163.51420652320226,267.57858238462285,15.0,-0.01466291668000963,DEPARTURE,0.9821543105210557,15.0,-0.01466291668000963,1440252.0489320732,16656.659429814747,70056.65942981475
178.0,31.13580915133298,121.58128565865881,3627.117586174987,163.61822587737174,267.5768560778159,15.0,-0.014708604347589471,DEPARTURE,0.9809279347679771,15.0,-0.014708604347589471,1439930.865032834,16653.65608124275,70053.65608124275
180.0,31.135686868486964,121.57791205831214,3689.6868324262914,163.70517002627028,267.5751260089625,15.0,-0.014750084368671423,DEPARTURE,0.9798877412262823,15.0,-0.014750084368671423,1439609.4891181951,16650.661550848705,70050.6615508487
182.0,31.135564436437573,121.57453676192969,3752.1679325449654,163.77645910394023,267.57339245566715,15.0,-0.014787540681538758,DEPARTURE,0.9790182997372969,15.0,-0.014787540681538758,1439287.950808895,16647.675293921413,70047.6752939214
184.0,31.13544186527422,121.57116005436616,3814.5497801018228,163.83339332439365,267.5716557020713,15.0,-0.014821142801707765,DEPARTURE,0.9783054089605974,15.0,-0.014821142801707765,1438966.2772385194,16644.696812870683,70044.69681287068
186.0,31.135319164261638,121.56778219679634,3876.8221682925514,163.8771685738778,267.5699160140743,15.0,-0.014851090618776652,DEPARTURE,0.9777360667560631,15.0,-0.014851090618776652,1438644.4932851458,16641.72565311572,70041.72565311572
188.0,31.135196341900528,121.56440342845553,3938.975608771007,163.9088819697743,267.5681736527547,15.0,-0.014877575321548875,DEPARTURE,0.9772983142612215,15.0,-0.014877575321548875,1438322.621737111,16638.76139951808,70038.76139951809
190.0,31.135073405993793,121.56102396854283,4001.0013430523313,163.9295425784615,267.5664288636488,15.0,-0.01490079819242851,DEPARTURE,0.9769811803022566,15.0,-0.01490079819242851,1438000.6834742993,16635.803673009592,70035.80367300959
192.0,31.13495036370013,121.55764401776294,4062.891239921876,163.94007749024215,267.56468188238176,15.0,-0.014920953033850992,DEPARTURE,0.9767745742153846,15.0,-0.014920953033850992,1437678.6976149995,16632.852127593233,70032.85212759323
194.0,31.134827221587376,121.55426375986218,4124.6377730214235,163.9413396995275,267.5629329304357,15.0,-0.014938233415904278,DEPARTURE,0.9766692250975781,15.0,-0.014938233415904278,1437356.6816622023,16629.906447555622,70029.90644755562
196.0,31.134703985678616,121.5508833629572,4186.23395614246,163.93411380080474,267.561182217545,15.0,-0.014952825124822766,DEPARTURE,0.9766566030047246,15.0,-0.014952825124822766,1437034.6516301609,16626.966344952696,70026.9663449527
198.0,31.134580661496024,121.54750298079902,4247.6733111073545,163.91912209807018,267.55942994032324,15.0,-0.014964908715910497,DEPARTURE,0.9767288619919523,15.0,-0.014964908715910497,1436712.6221647914,16624.03155729281,70024.03155729281
200.0,31.134457254100028,121.54412275390301,4308.949822135651,163.8970296134959,267.55767628342966,15.0,-0.014974656459088465,DEPARTURE,0.9768787790192979,15.0,-0.014974656459088465,1436390.606651294,16621.10184543087,70021.10184543087
202.0,31.134333768125757,121.54074281060107,4370.0579036937415,163.86844899357592,267.55592141939684,15.0,-0.014982233202545103,DEPARTURE,0.9770997038650406,15.0,-0.014982233202545103,1436068.6173143827,16618.17699163533,70018.17699163532
204.0,31.13421020781613,121.53736326799697,4430.992365461556,163.83394478683087,267.5541655093768,15.0,-0.01498779528313321,DEPARTURE,0.9773855100642403,15.0,-0.01498779528313321,1435746.6653092653,16615.256797824055,70015.25679782405
206.0,31.13408657705237,121.53398423284791,4491.748383431017,163.79403746534842,267.5524087034447,15.0,-0.014991490893862647,DEPARTURE,0.977730552131691,15.0,-0.014991490893862647,1435424.7608056264,16612.341083947227,70012.34108394722
208.0,31.1339628793819,121.53060580237067,4552.321471616199,163.7492070316614,267.5506511412126,15.0,-0.014993459841917911,DEPARTURE,0.9781296253465155,15.0,-0.014993459841917911,1435102.9130643983,16609.429686508214,70009.42968650821
210.0,31.133839118044026,121.52722806498308,4612.70745709837,163.6998963518373,267.5488929523029,15.0,-0.014993833833187864,DEPARTURE,0.9785779296833856,15.0,-0.014993833833187864,1434781.1305083933,16606.522457207964,70006.52245720796
212.0,31.13371529599344,121.52385110098409,4672.902456590813,163.64651418179284,267.54713425691347,15.0,-0.014992736593683276,DEPARTURE,0.9790710364816266,15.0,-0.014992736593683276,1434459.4207870762,16603.61926170336,70003.61926170337
214.0,31.133591415921867,121.52047498317903,4732.902855210986,163.58943794595027,267.54537516633354,15.0,-0.014990284180584013,DEPARTURE,0.9796048581820713,15.0,-0.014990284180584013,1434137.790836119,16600.719978468867,70000.71997846887
216.0,31.13346748027794,121.51709977745388,4792.705286835694,163.52901627330098,267.54361578347454,15.0,-0.014986585258924379,DEPARTURE,0.980175620540497,15.0,-0.014986585258924379,1433816.2469321003,16597.824497752867,69997.82449775287
218.0,31.13334349128547,121.51372554330341,4852.3066161278675,163.465571321405,267.5418562033745,15.0,-0.014981741442483099,DEPARTURE,0.9807798372669898,15.0,-0.014981741442483099,1433494.79474281,16594.932720620283,69994.93272062029
220.0,31.133219450960244,121.51035233431674,4911.70392197767,163.39940090239125,267.5400965136914,15.0,-0.01497584763117743,DEPARTURE,0.9814142867859497,15.0,-0.01497584763117743,1433173.4393734985,16592.044558074143,69992.04455807415
222.0,31.133095361125502,121.50698019862408,4970.89448229471,163.33078043074315,267.5383367951737,15.0,-0.014968992364572387,DEPARTURE,0.9820759909760872,15.0,-0.014968992364572387,1432852.1854094276,16589.159930249247,69989.15993024924
224.0,31.13297122342616,121.50360917930793,5029.875760009179,163.2599647072846,267.53657712211066,15.0,-0.014961258173343595,DEPARTURE,0.9827621956925683,15.0,-0.014961258173343595,1432531.0369550365,16586.27876567181,69986.27876567181
226.0,31.132847039341918,121.50023931478155,5088.645390193549,163.18718955422312,267.53481756276017,15.0,-0.014952721926988488,DEPARTURE,0.9834703529271536,15.0,-0.014952721926988488,1432209.9976699909,16583.401000579426,69983.40100057943
228.0,31.132722810199336,121.4968706391376,5147.201168204706,163.1126733138989,267.533058179754,15.0,-0.01494345517386364,DEPARTURE,0.9841981044577685,15.0,-0.01494345517386364,1431889.0708023915,16580.52657829623,69980.52657829624
230.0,31.132598537182968,121.4935031824693,5205.541038764365,163.03661822315223,267.53129903048017,15.0,-0.014933524473633497,DEPARTURE,0.9849432668610105,15.0,-0.014933524473633497,1431568.2592193652,16577.65544865861,69977.65544865861
232.0,31.132474221345607,121.49013697116646,5263.663085898599,162.95921167395792,267.52954016744343,15.0,-0.014922991710704991,DEPARTURE,0.9857038177684774,15.0,-0.014922991710704991,1431247.5654352596,16574.787567487194,69974.78756748719
234.0,31.132349863617762,121.48677202818847,5321.56552366608,162.88062737010827,267.52778163860336,15.0,-0.014911914403910487,DEPARTURE,0.9864778832604204,15.0,-0.014911914403910487,1430926.9916376432,16571.922896101216,69971.92289610121
236.0,31.13222546481638,121.48340837331597,5379.24668760989,162.80102638881436,267.52602348769165,15.0,-0.014900345992657549,DEPARTURE,0.987263726298917,15.0,-0.014900345992657549,1430606.539711284,16569.061400871724,69969.06140087172
238.0,31.13210102565291,121.48004602338318,5436.705026873715,162.72055815532536,267.5242657545091,15.0,-0.014888336113187961,DEPARTURE,0.988059736111856,15.0,-0.014888336113187961,1430286.2112602734,16566.2030528104,69966.2030528104
240.0,31.131976546740752,121.47668499249241,5493.939096928124,162.63936133794178,267.522508475203,15.0,-0.014875930859062692,DEPARTURE,0.9888644184467461,15.0,-0.014875930859062692,1429966.0076284572,16563.347827191006,69963.347827191
242.0,31.131852028602122,121.473325292212,5550.947552857336,162.55756467015271,267.5207516825261,15.0,-0.01486317302484963,DEPARTURE,0.9896763866205819,15.0,-0.01486317302484963,1429645.9299182943,16560.49570320077,69960.49570320077
244.0,31.131727471674417,121.4699669317593,5607.729143161027,162.47528770603606,267.5189954060781,15.0,-0.014850102338641591,DEPARTURE,0.9904943532984725,15.0,-0.014850102338641591,1429325.9790082828,16557.646663619238,69957.64666361923
246.0,31.131602876316098,121.46660991816984,5664.282704029569,162.3926415145251,267.51723967253025,15.0,-0.014836755675986524,DEPARTURE,0.9913171229396391,15.0,-0.014836755675986524,1429006.1555690716,16554.80069452234,69954.80069452233
248.0,31.131478242812115,121.46325425645358,5720.6071540545645,162.30972931765814,267.515484505835,15.0,-0.014823167263415371,DEPARTURE,0.9921435848547486,15.0,-0.014823167263415371,1428686.4600783484,16551.95778500957,69951.95778500957
250.0,31.131353571378956,121.45989994973966,5776.701489339736,162.22664707748407,267.51372992742,15.0,-0.014809368867901185,DEPARTURE,0.9929727068234182,15.0,-0.014809368867901185,1428366.8928346224,16549.11792695244,69949.11792695244
252.0,31.131228862169294,121.45654699941022,5832.564778980096,162.14348403589506,267.5119759563696,15.0,-0.014795389970458928,DEPARTURE,0.9938035292251589,15.0,-0.014795389970458928,1428047.4539699724,16546.281114762423,69946.28111476242
254.0,31.131104115276322,121.45319540522435,5888.196160880004,162.06032321128882,267.5102226095923,15.0,-0.01478125793403251,DEPARTURE,0.9946351596410491,15.0,-0.01478125793403251,1427728.1434618547,16543.447345176843,69943.44734517684
256.0,31.13097933073774,121.44984516543295,5943.594837883111,161.97724185563072,267.50846990197687,15.0,-0.014766998154755129,DEPARTURE,0.9954667678871114,15.0,-0.014766998154755129,1427408.9611440422,16540.61661706123,69940.61661706123
258.0,31.13085450853949,121.44649627688517,5998.760074189407,161.89431187518014,267.5067178465372,15.0,-0.014752634203574644,DEPARTURE,0.9962975814436925,15.0,-0.014752634203574644,1427089.9067167635,16537.788931226838,69937.78893122684
260.0,31.13072964861917,121.44314873512712,6053.691192036612,161.81160021786877,267.50496645454643,15.0,-0.014738187959352445,DEPARTURE,0.9971268812481984,15.0,-0.014738187959352445,1426770.9797561031,16534.964290262076,69934.96429026208
262.0,31.130604750869267,121.43980253449342,6108.387568624999,161.72916923006548,267.50321573566174,15.0,-0.014723679731389439,DEPARTURE,0.9979539978213119,15.0,-0.014723679731389439,1426452.1797227245,16532.142698376774,69932.14269837677
264.0,31.130479815140113,121.43645766819225,6162.848633266419,161.64707698523128,267.5014656980398,15.0,-0.014709128372231817,DEPARTURE,0.9987783076993448,15.0,-0.014709128372231817,1426133.5059699714,16529.324161258217,69929.32416125822
266.0,31.13035484124265,121.4331141283843,6217.0738647398575,161.56537758675796,267.499716348444,15.0,-0.014694551384167198,DEPARTURE,0.9995992301476868,15.0,-0.014694551384167198,1425814.9577513863,16526.508685938054,69926.50868593805
268.0,31.130229830353855,121.4297719437879,6271.062179497021,161.48230779473354,267.49796767273347,15.0,-0.014679965017450058,DEPARTURE,1.0,15.0,-0.014679965017450058,1425496.537803459,16523.69745077309,69923.69745077309
270.0,31.1301047848505,121.42643117509009,6324.8109852139305,161.39624106043266,267.496219690421,15.0,-0.014665325596979528,DEPARTURE,1.0,15.0,-0.014665325596979528,1425178.2519084783,16520.8915700538,69920.89157005379
272.0,31.129979706936474,121.42309187822582,6378.317112172978,161.30735440954902,267.4944724092077,15.0,-0.014650614972111953,DEPARTURE,1.0,15.0,-0.014650614972111953,1424860.1053960386,16518.09102641942,69918.09102641942
274.0,31.12985459869192,121.41975410574976,6431.577708229253,161.21583523354948,267.49272580099154,15.0,-0.01463580094110739,DEPARTURE,1.0,15.0,-0.01463580094110739,1424542.1032737265,16515.29580222284,69915.29580222284
276.0,31.129729462065537,121.4164179066112,6484.590018560353,161.12186306397328,267.4909798598306,15.0,-0.014620800130359157,DEPARTURE,1.0,15.0,-0.014620800130359157,1424224.250205675,16512.50587957726,69912.50587957726
278.0,31.129604298880356,121.41308332631115,6537.3514348054905,161.0256140528079,267.4892345850946,15.0,-0.014605565158547051,DEPARTURE,1.0,15.0,-0.014605565158547051,1423906.5505275286,16509.721240354356,69909.72124035435
280.0,31.129479110836268,121.40975040696979,6589.859481295593,160.9272599632222,267.4874899830919,15.0,-0.014590059255510823,DEPARTURE,1.0,15.0,-0.014590059255510823,1423589.0082528684,16506.941866194134,69906.94186619413
282.0,31.129353899513156,121.40641918741306,6642.111815493744,160.82696844148427,267.4857460648212,15.0,-0.014574258664765694,DEPARTURE,1.0,15.0,-0.014574258664765694,1423271.627081458,16504.167738512115,69904.16773851211
284.0,31.12922866637378,121.40308970325431,6694.10622535064,160.72490299793876,267.48400284493306,15.0,-0.01455814921789056,DEPARTURE,1.0,15.0,-0.01455814921789056,1422954.4104070184,16501.398838507128,69901.39883850713
286.0,31.12910341276667,121.399761986976,6745.840627315131,160.6212230500113,267.48226034070746,15.0,-0.01454172472020332,DEPARTURE,1.0,15.0,-0.01454172472020332,1422637.361325014,16498.635147169032,69898.63514716903
288.0,31.12897813992892,121.3964360680107,6797.313064216953,160.51608395102988,267.4805185712555,15.0,-0.014524985363550513,DEPARTURE,1.0,15.0,-0.014524985363550513,1422320.482640361,16495.876645286437,69895.87664528644
290.0,31.128852848988945,121.39311197282134,6848.521703176603,160.4096370209904,267.4787775568618,15.0,-0.014507936470010918,DEPARTURE,1.0,15.0,-0.014507936470010918,1422003.7768750743,16493.123313454435,69893.12331345443
292.0,31.12872754096922,121.38978972498084,6899.464833510327,160.30202957623106,267.47703731845166,15.0,-0.014490587449529357,DEPARTURE,1.0,15.0,-0.014490587449529357,1421687.246275848,16490.37513208232,69890.37513208232
294.0,31.128602216788945,121.38646934525109,6950.140864634254,160.1934049587996,267.47529787715916,15.0,-0.014472950943087426,DEPARTURE,1.0,15.0,-0.014472950943087426,1421370.8928215792,16487.63208140131,69887.6320814013
296.0,31.128476877266717,121.38315085166126,7000.548323965333,160.08390256555597,267.47355925397943,15.0,-0.01445504211440607,DEPARTURE,1.0,15.0,-0.01445504211440607,1421054.7182308282,16484.894141472192,69884.89414147219
298.0,31.128351523123143,121.37983425958554,7050.68585481798,159.97365787718155,267.47182146948904,15.0,-0.014436878071933279,DEPARTURE,1.0,15.0,-0.014436878071933279,1420738.723969215,16482.161292193014,69882.16129219302
300.0,31.12822615498345,121.37651958182015,7100.552214295392,159.86280248723438,267.4700845436235,15.0,-0.014418477388716155,DEPARTURE,1.0,15.0,-0.014418477388716155,1420422.9112567604,16479.43351330667,69879.43351330666
302.0,31.12810077338007,121.37320682865976,7150.146271174634,159.75146413138734,267.4683484955013,15.0,-0.014399859711801355,DEPARTURE,1.0,15.0,-0.014399859711801355,1420107.2810751596,16476.710784408482,69876.71078440848
304.0,31.127975378755174,121.36989600797328,7199.467003784766,159.639766716978,267.4666133432865,15.0,-0.014381045438142337,DEPARTURE,1.0,15.0,-0.014381045438142337,1419791.8341750032,16473.9930849537,69873.9930849537
306.0,31.12784997146324,121.36658712527891,7248.513497877448,159.5278303529908,267.4648791040828,15.0,-0.014362055451385913,DEPARTURE,1.0,15.0,-0.014362055451385913,1419476.5710829224,16471.280394264966,69871.28039426496
308.0,31.127724551773557,121.36328018381862,7297.284944489604,159.41577138058568,267.46314579385376,15.0,-0.014342910903508255,DEPARTURE,1.0,15.0,-0.014342910903508255,1419161.4921086836,16468.572691539706,69868.57269153971
310.0,31.127599119872727,121.35997518463192,7345.78063779788,159.3037024042781,267.46141342736456,15.0,-0.01432363303823081,DEPARTURE,1.0,15.0,-0.01432363303823081,1418846.5973522163,16465.86995585744,69865.86995585744
312.0,31.12747366572475,121.35667185268211,7393.8858977048085,159.19600411969714,267.4596873083712,14.981086116000208,-0.014304243045557996,DEPARTURE,1.0,14.981086116000208,-0.014304243045557996,1418531.860610585,16463.172166187036,69863.17216618704
314.0,31.12734817496893,121.35336980181691,7441.502689464175,159.09935643536207,267.45796581778444,14.943189544828757,-0.014292921218924448,DEPARTURE,1.0,14.943189544828757,-0.014292921218924448,1418217.2450932518,16460.479295378158,69860.47929537816
316.0,31.127222632634368,121.350068634377,7488.5838112108995,159.0182875878525,267.45624607415385,14.894053554744547,-0.014287547592601868,DEPARTURE,1.0,14.894053554744547,-0.014287547592601868,1417902.7129122487,16457.791315057988,69857.79131505798
318.0,31.12709702379111,121.34676795649303,7535.113120535158,158.95501974617943,267.45452661168787,14.839035224638497,-0.014284112591582243,DEPARTURE,1.0,14.839035224638497,-0.014284112591582243,1417588.226540005,16455.10819788669,69855.10819788669
320.0,31.12697133393849,121.34346738723168,7581.093232826522,158.9103551618487,267.4528067659493,14.781445614570682,-0.014280724794531352,DEPARTURE,1.0,14.781445614570682,-0.014280724794531352,1417273.74968098,16452.429917560046,69852.42991756005
322.0,31.126845549231835,121.340166563943,7626.537838397021,158.88423106701458,267.45108630959004,14.723319010637141,-0.014276683838801318,DEPARTURE,1.0,14.723319010637141,-0.014276683838801318,1416959.247781272,16449.756448792596,69849.7564487926
324.0,31.126719656607047,121.33686514518956,7671.466888947334,158.87606846291567,267.4493652380235,14.66588865536561,-0.014271930663113608,DEPARTURE,1.0,14.66588865536561,-0.014271930663113608,1416644.6883077945,16447.087767287063,69847.08776728707
326.0,31.12659364383972,121.33356281211113,7715.903577265084,158.8849921358224,267.4476436454102,14.609882672067094,-0.014266724131118735,DEPARTURE,1.0,14.609882672067094,-0.014266724131118735,1416330.0408783408,16444.423849694103,69844.42384969411
328.0,31.12646749956212,121.330259268771,7759.872444905014,158.90996976146877,267.4459216550214,14.555709391387396,-0.014261454114887329,DEPARTURE,1.0,14.555709391387396,-0.014261454114887329,1416015.2772946223,16441.76467356554,69841.76467356554
330.0,31.12634121325321,121.32695424184267,7803.398204063998,158.94989983593376,267.4441993821613,14.503574266339957,-0.01425653680502137,DEPARTURE,1.0,14.503574266339957,-0.01425653680502137,1415700.3715124321,16439.110217303634,69839.11021730363
332.0,31.126214775211604,121.32364747987559,7846.505014505515,159.00366701461934,267.4424769163482,14.453554190168823,-0.014252359307761253,DEPARTURE,1.0,14.453554190168823,-0.014252359307761253,1415385.2995717088,16436.460460108385,69836.46046010838
334.0,31.126088176518223,121.3203387523011,7889.216052045018,159.0701765479794,267.4407543146453,14.405645097003333,-0.01424925341811445,DEPARTURE,1.0,14.405645097003333,-0.01424925341811445,1415070.039501836,16433.815381924353,69833.81538192436
336.0,31.125961408992968,121.31702784828751,7931.553264664666,159.14837522163126,267.43903160121255,14.35979267453013,-0.014247486315298374,DEPARTURE,1.0,14.35979267453013,-0.014247486315298374,1414754.5712125672,16431.174963388123,69831.17496338813
338.0,31.12583446514848,121.3137145755188,7973.53724966599,159.23726353323195,267.43730877010915,14.315912313873845,-0.014247260702319409,DEPARTURE,1.0,14.315912313873845,-0.014247260702319409,1414438.8763776727,16428.53918577722,69828.53918577722
340.0,31.125707338142952,121.31039875894731,8015.187208851809,159.33590215521082,267.43558578958084,14.27390214112529,-0.014248719889309314,DEPARTURE,1.0,14.27390214112529,-0.014248719889309314,1414122.938316107,16425.908030960956,69825.90803096096
342.0,31.125580021733334,121.30708023955486,8056.520953578251,159.44341465451902,267.43386260681575,14.23365156171731,-0.014251955130674787,DEPARTURE,1.0,14.23365156171731,-0.014251955130674787,1413806.741873982,16423.281766158296,69823.2817661583
344.0,31.1254525102298,121.30375887314513,8097.554941408768,159.55898779120804,267.43213915258605,14.195046850535725,-0.01425701367139709,DEPARTURE,1.0,14.195046850535725,-0.01425701367139709,1413490.273309512,16420.660861509274,69820.66086150927
346.0,31.125324798452034,121.30043452918241,8138.3043326387115,159.68187027523803,267.4304153454694,14.15797481175284,-0.014263906605663124,DEPARTURE,1.0,14.15797481175284,-0.014263906605663124,1413173.5201823858,16418.045290306225,69818.04529030623
348.0,31.125196881687742,121.29710708968639,8178.783058206613,159.81137049193265,267.42869109556017,14.12232518717722,-0.014272616075800215,DEPARTURE,1.0,14.12232518717722,-0.014272616075800215,1412856.4712484628,16415.435026640247,69815.43502664025
350.0,31.125068755653487,121.29377644818851,8219.003893608438,159.94685362130593,267.4269663076132,14.087992149817333,-0.014283101674919862,DEPARTURE,1.0,14.087992149817333,-0.014283101674919862,1412539.1163603505,16412.83004533596,69812.83004533596
352.0,31.124940416458045,121.29044250875276,8258.978535207496,160.08773841337333,267.42524088364064,14.054875207099954,-0.014295305950355441,DEPARTURE,1.0,14.054875207099954,-0.014295305950355441,1412221.4463741132,16410.230321890813,69810.23032189082
354.0,31.124811860568222,121.28710518506165,8298.717676526694,160.2334937981617,267.4235147250082,14.022879700511837,-0.01430915904967378,DEPARTURE,1.0,14.022879700511837,-0.01430915904967378,1411903.4530621907,16407.635832418844,69807.63583241885
356.0,31.124683084777132,121.28376439956668,8338.231082920793,160.38363545247495,267.4217877340901,13.991917028118785,-0.014324582564171351,DEPARTURE,1.0,13.991917028118785,-0.014324582564171351,1411585.1290324598,16405.04655359872,69805.04655359872
358.0,31.12455408617485,121.28042008270175,8377.52766358258,160.5377224065112,267.4200598155445,13.961904676635633,-0.014341492665693067,DEPARTURE,1.0,13.961904676635633,-0.014341492665693067,1411266.4676533001,16402.462462625866,69802.46246262587
360.0,31.124424862121362,121.27707217215722,8416.615540222288,160.6953537463152,267.4183308772675,13.932766123195702,-0.014359802629371643,DEPARTURE,1.0,13.932766123195702,-0.014359802629371643,1410947.4629844276,16399.883537168484,69799.88353716848
362.0,31.124295410221674,121.27372061221175,8455.502112028664,160.856165448969,267.4166008310811,13.904430649067644,-0.014379424829002119,DEPARTURE,1.0,13.904430649067644,-0.014379424829002119,1410628.1097132417,16397.30975532718,69797.30975532718
364.0,31.12416572830299,121.27036535311893,8494.194116709139,161.0198273738617,267.4148695932025,13.876833095327154,-0.014400272287673488,DEPARTURE,1.0,13.876833095327154,-0.014400272287673488,1410308.4030963876,16394.741095598038,69794.74109559803
366.0,31.124035814393824,121.26700635054559,8532.697687539874,161.18604042366442,267.4131370845368,13.849913582001818,-0.014422259864659281,DEPARTURE,1.0,13.849913582001818,-0.014422259864659281,1409988.33890624,16392.177536838837,69792.17753683883
368.0,31.1239056667049,121.26364356505819,8571.018406450186,161.35453388164262,267.41140323082874,13.823617206231827,-0.014445305131857822,DEPARTURE,1.0,13.823617206231827,-0.014445305131857822,1409667.9133819768,16389.619058238244,69789.61905823824
370.0,31.123775283611742,121.26027696165447,8609.161353231466,161.52506292689765,267.4096679627037,13.797893730719256,-0.014469329008676368,DEPARTURE,1.0,13.797893730719256,-0.014469329008676368,1409347.1231849527,16387.065639287724,69787.06563928773
372.0,31.12364466363884,121.25690650933672,8647.131151005731,161.69740632551188,267.4079312156232,13.772697270642427,-0.014494256188868349,DEPARTURE,1.0,13.772697270642427,-0.014494256188868349,1409025.9653580475,16384.517259755976,69784.51725975597
374.0,31.1235138081456,121.25353225040276,8684.931221863153,161.86802136179494,267.406192893933,13.747985984935468,-0.014520015414831278,DEPARTURE,0.9990959367448808,13.747985984935468,-0.014520015414831278,1408704.4439281628,16381.976199024099,69781.9761990241
376.0,31.123382720866307,121.25015428831142,8722.562242937007,162.0338504289312,267.40445296562586,13.723756362218342,-0.014546431355284994,DEPARTURE,0.9973897863820502,13.723756362218342,-0.014546431355284994,1408382.5687500648,16379.444459674885,69779.44445967488
378.0,31.12325140521569,121.24677271806422,8760.022137748267,162.19513275672887,267.4027114510431,13.699820785773172,-0.01457337627394395,DEPARTURE,0.9957314957106876,13.699820785773172,-0.01457337627394395,1408060.348872739,16376.92187510166,69776.92187510166
380.0,31.12311986425579,121.24338762543611,8797.307296739304,162.35221774791242,267.4009683237608,13.675873991406652,-0.014600807500386281,DEPARTURE,0.994118672432711,13.675873991406652,-0.014600807500386281,1407737.7924660714,16374.408285671776,69774.40828567177
382.0,31.122988100691888,121.23999908692154,8834.41338985243,162.50550590526439,267.39922353718316,13.651738409084073,-0.014628619272173182,DEPARTURE,0.9925478225208755,13.651738409084073,-0.014628619272173182,1407414.9068156905,16371.903541406064,69771.90354140606
384.0,31.12285611688629,121.23660717011956,8871.335894727992,162.65541061303642,267.3974770403252,13.627322134031475,-0.014656682636370988,DEPARTURE,0.9910149409473559,13.627322134031475,-0.014656682636370988,1407091.698359651,16369.407503166236,69769.40750316624
386.0,31.122723914882403,121.23321193437016,8908.070428218101,162.80233428190994,267.3957287865682,13.602589574792281,-0.014684868821319697,DEPARTURE,0.9895158938696355,13.602589574792281,-0.014684868821319697,1406768.1727490646,16366.92004288485,69766.92004288486
388.0,31.122591496433987,121.22981343151619,8944.61294325642,162.9466542854511,267.3939787379484,13.577541096277084,-0.014713061891001189,DEPARTURE,0.9880466571809003,13.577541096277084,-0.014713061891001189,1406444.3349206867,16364.44104320433,69764.44104320434
390.0,31.12245886303629,121.22641170670856,8980.959834796036,163.08871547980596,267.3922268666969,13.55219902723519,-0.014741164605823087,DEPARTURE,0.9866034571454887,13.55219902723519,-0.014741164605823087,1406120.189173644,16361.970396773546,69761.97039677354
392.0,31.12232601595693,121.22300679920262,9017.107985455621,163.2288270666976,267.39047315516416,13.526598154652518,-0.014769100133548818,DEPARTURE,0.9851828452019401,13.526598154652518,-0.014769100133548818,1405795.739245311,16359.508005367978,69759.50800536797
394.0,31.12219295626527,121.21959874311436,9053.054772212392,163.36726224599795,267.3887175948673,13.50077936718042,-0.014796811339806482,DEPARTURE,0.9837817293330238,13.50077936718042,-0.014796811339806482,1405470.9883833653,16357.053778942121,69757.05377894212
396.0,31.12205968485956,121.21618756811868,9088.798048880426,163.5042595891689,267.3869601851279,13.474785496154691,-0.014824258793481704,DEPARTURE,0.9823973775400201,13.474785496154691,-0.014824258793481704,1405145.9394123221,16354.607634683203,69754.6076346832
398.0,31.12192620249152,121.21277330008165,9124.336114445841,163.6400254065421,267.3852009315884,13.448658679265428,-0.01485141819946989,DEPARTURE,0.9810274041083107,13.448658679265428,-0.01485141819946989,1404820.5947937744,16352.169496108185,69752.16949610818
400.0,31.12179250978824,121.20935596162447,9159.667674044276,163.77473662108704,267.3834398447744,13.422438769513207,-0.014878277696283249,DEPARTURE,0.9796697459345787,13.422438769513207,-0.014878277696283249,1404494.9566801346,16349.739292227712,69749.73929222772
402.0,31.121658607271517,121.20593557262069,9194.791797064172,163.90854382856054,267.38167693879467,13.396162453048888,-0.014904835274052175,DEPARTURE,0.9783226337891293,13.396162453048888,-0.014904835274052175,1404169.0269620095,16347.316956788467,69747.31695678848
404.0,31.121524495374693,121.20251215063061,9229.70787525744,164.04157433984372,267.37991223021834,13.369862839890704,-0.014931096446787251,DEPARTURE,0.9769845617143943,13.369862839890704,-0.014931096446787251,1403842.8073095914,16344.902427597479,69744.90242759748
406.0,31.121390174457265,121.19908571127772,9264.415582633623,164.17393508091374,267.3781457371413,13.343569362874842,-0.014957072236285285,DEPARTURE,0.9756542566015625,13.343569362874842,-0.014957072236285285,1403516.2992085277,16342.495645926938,69742.49564592695
408.0,31.12125564481743,121.195656268573,9298.914838158937,164.30571527999098,267.3763774784332,13.31730787080386,-0.0149827774860114,DEPARTURE,0.9743306491908623,13.31730787080386,-0.0149827774860114,1403189.5039908225,16340.096555995075,69740.09655599507
410.0,31.121120906702856,121.19222383519269,9333.205771773995,164.43698890757904,267.3746074731497,13.291100837546884,-0.015008229478269186,DEPARTURE,0.9730128472000898,13.291100837546884,-0.015008229478269186,1402862.4228613018,16337.705104517043,69737.70510451705
412.0,31.120985960319803,121.18878842271496,9367.288693909355,164.5678168587915,267.3728357400876,13.264967634069908,-0.015033446842721787,DEPARTURE,0.9717001109242094,13.264967634069908,-0.015033446842721787,1402535.0569201682,16335.321240319,69735.321240319
414.0,31.120850805840902,121.18535004182077,9401.16406846377,164.6982488823753,267.37106229746183,13.238924828076028,-0.015058448701438465,DEPARTURE,0.9703918314120846,13.238924828076028,-0.015058448701438465,1402207.4071821342,16332.944914008425,69732.94491400843
416.0,31.12071544341168,121.18190870246363,9434.832489078957,164.82832526990697,267.3692871626819,13.212986488289761,-0.015083254029747195,DEPARTURE,0.9690875111762466,13.212986488289761,-0.015083254029747195,1401879.4745926056,16330.576077693931,69730.57607769393
418.0,31.120579873156075,121.17846441401252,9468.294658470184,164.9580783236674,267.36751035220937,13.187164478980964,-0.015107881188299643,DEPARTURE,0.9677867473009301,13.187164478980964,-0.015107881188299643,1401551.2600412923,16328.214684748225,69728.21468474822
420.0,31.120444095181043,121.17501718537171,9501.55137053575,165.08753362403428,267.36573188147815,13.161468736200579,-0.015132347594459361,DEPARTURE,0.9664892167633257,13.161468736200579,-0.015132347594459361,1401222.7643736275,16325.860689608415,69725.86068960841
422.0,31.120308109580403,121.17156702508102,9534.603494957217,165.21671111780302,267.3639517648645,13.135907521184084,-0.015156669510162146,DEPARTURE,0.9651946637596569,13.135907521184084,-0.015156669510162146,1400893.9884003229,16323.514047608458,69723.51404760845
424.0,31.120171916438043,121.16811394139918,9567.451964007147,165.3456260483078,267.36217001569275,13.11048764903154,-0.01518086191614998,DEPARTURE,0.9639028888219695,13.11048764903154,-0.01518086191614998,1400564.9329053117,16321.174714839088,69721.17471483909
426.0,31.120035515830576,121.16465794237318,9600.097761295707,165.47428974700955,267.3603866462681,13.08521469249685,-0.015204938452967554,DEPARTURE,0.9626137395169218,13.08521469249685,-0.015204938452967554,1400235.5986523512,16318.842648031154,69718.84264803116
428.0,31.119898907829526,121.16119903589541,9632.541912207636,165.60271030464963,267.3586016679277,13.060093161797084,-0.015228911417125346,DEPARTURE,0.9613271025299042,13.060093161797084,-0.015228911417125346,1399905.9863904766,16316.517804458814,69716.51780445881
430.0,31.119762092503134,121.15773722975084,9664.78547580384,165.73089313833847,267.35681509110367,13.035126661987942,-0.01525279178761707,DEPARTURE,0.9600428969535033,13.035126661987942,-0.01525279178761707,1399576.0968584884,16314.2001418595,69714.2001418595
432.0,31.119625069917827,121.15427253165565,9696.829537985292,165.85884146919088,267.3550269253936,13.010318029785246,-0.015276589284155762,DEPARTURE,0.9587610686166149,13.010318029785246,-0.015276589284155762,1399245.9307886383,16311.889618367997,69711.889618368
434.0,31.11948784013943,121.15080494928871,9728.67520573993,165.9865567234151,267.35323717963365,12.985669451845649,-0.015300312441695496,DEPARTURE,0.9574815853080909,12.985669451845649,-0.015300312441695496,1398915.4889096252,16309.58619246239,69709.58619246239
436.0,31.119350403234137,121.14733449031719,9760.323602314897,166.11403886816254,267.3514458619725,12.961182566522474,-0.015323968693735424,DEPARTURE,0.9562044327658485,12.961182566522474,-0.015323968693735424,1398584.7719490374,16307.289822919907,69707.2898229199
438.0,31.119212759269296,121.14386116241712,9791.775863176625,166.24128669197347,267.34965297994347,12.936858551033685,-0.015347564459375462,DEPARTURE,0.9549296113183743,12.936858551033685,-0.015347564459375462,1398253.7806353131,16305.00046878105,69705.00046878104
440.0,31.119074908314037,121.1403849732899,9823.03313263945,166.36829803832572,267.3478585405338,12.912698195852023,-0.015371105238386917,DEPARTURE,0.953657133080265,12.912698195852023,-0.015371105238386917,1397922.5156993112,16302.718089320595,69702.7180893206
442.0,31.118936850439773,121.13690593067531,9854.09656105981,166.49506999960593,267.34606255024926,12.888701967975319,-0.015394595697927116,DEPARTURE,0.9523870196167425,12.888701967975319,-0.015394595697927116,1397590.977875552,16300.4426440243,69700.4426440243
444.0,31.11879858572059,121.13342404236184,9884.967302507592,166.62159907777487,267.3442650151748,12.864870064573148,-0.015418039758912983,DEPARTURE,0.9511193000039404,12.864870064573148,-0.015418039758912983,1397259.1679032014,16298.17409257034,69698.17409257035
446.0,31.11866011423355,121.12993931619452,9915.646512838935,166.7478813170788,267.3424659410298,12.841202458344313,-0.01544144068000719,DEPARTURE,0.9498540092222509,12.841202458344313,-0.01544144068000719,1396927.0865268183,16295.912394814615,69695.91239481462
448.0,31.118521436058916,121.12645176008097,9946.135348105987,166.87391241335885,267.3406653332183,12.817698935764536,-0.015464801131372496,DEPARTURE,0.9485911868292117,12.817698935764536,-0.015464801131372496,1396594.7344969278,16293.657510779276,69693.65751077927
450.0,31.118382551280337,121.12296138199574,9976.434963248741,166.99968780381676,267.3388631968749,12.794359129258561,-0.015488123264248088,DEPARTURE,0.9473308758664112,12.794359129258561,-0.015488123264248088,1396262.1125704397,16291.409400643852,69691.40940064385
452.0,31.118243459984946,121.11946818998354,10006.546511022503,167.12520274049857,267.33705953690526,12.771182544198044,-0.015511408778479563,DEPARTURE,0.9460731219618321,12.771182544198044,-0.015511408778479563,1395929.2215109516,16289.16802473852,69689.16802473852
454.0,31.118104162263467,121.11597219216127,10036.4711411217,167.2504523502454,267.33525435802227,12.748168581506407,-0.015534658977003346,DEPARTURE,0.944817972595014,12.748168581506407,-0.015534658977003346,1395596.062088946,16286.933343539122,69686.93334353913
456.0,31.11796465821025,121.11247339671928,10066.209999466939,167.37543168342282,267.3334476647782,12.725316556544573,-0.015557874820842699,DEPARTURE,0.9435654764975456,12.725316556544573,-0.015557874820842699,1395262.6350819091,16284.70531766358,69684.70531766358
458.0,31.11782494792331,121.10897181192198,10095.764227627498,167.50013575336655,267.331639461593,12.702625714856591,-0.015581056973275054,DEPARTURE,0.9423156831657715,12.702625714856591,-0.015581056973275054,1394928.9412743864,16282.483907869448,69682.48390786945
460.0,31.117685031504312,121.10546744610772,10125.134962355887,167.62455956816683,267.3298297527788,12.680095245270621,-0.015604205844084618,DEPARTURE,0.9410686424663341,12.680095245270621,-0.015604205844084618,1394594.9814579776,16280.26907505237,69680.26907505238
462.0,31.117544909058577,121.10196030768853,10154.323335214976,167.7486981561446,267.3280185425616,12.65772429077812,-0.015627321623497892,DEPARTURE,0.9398244043183314,12.65772429077812,-0.015627321623497892,1394260.7564313048,16278.060780245276,69678.06078024527
464.0,31.11740458069505,121.0984504051492,10183.330472281374,167.87254658614665,267.32620583510004,12.635511957550676,-0.015650404316801314,DEPARTURE,0.9385830184385537,12.635511957550676,-0.015650404316801314,1393926.2669999306,16275.858984618124,69675.85898461813
466.0,31.117264046526273,121.09493774704629,10212.15749391148,167.99609998359645,267.32439163450124,12.613457322399366,-0.015673453771881896,DEPARTURE,0.9373445341385331,12.613457322399366,-0.015673453771881896,1393591.5139762615,16273.663649478116,69673.66364947811
468.0,31.117123306668322,121.09142234200688,10240.805514558933,168.11935354307687,267.3225759448347,12.591559438934501,-0.015696469704209903,DEPARTURE,0.9361090001640351,12.591559438934501,-0.015696469704209903,1393256.4981794276,16271.474736270244,69671.47473627025
470.0,31.11698236124078,121.08790419872706,10269.27564263409,168.24230253808707,267.3207587701443,12.56981734264323,-0.0157194517167909,DEPARTURE,0.934876464569231,12.56981734264323,-0.0157194517167909,1392921.220435141,16269.292206578108,69669.2922065781
472.0,31.116841210366665,121.08438332597045,10297.56898039778,168.36494232850345,267.31894011445837,12.54823005506804,-0.01574239932207888,DEPARTURE,0.9336469746191289,12.54823005506804,-0.01574239932207888,1392585.6815755542,16267.116022124928,69667.11602212493
474.0,31.116699854172392,121.08085973256651,10325.686623882988,168.48726836618087,267.3171199817979,12.526796587239783,-0.01576531195613029,DEPARTURE,0.9324205767149651,12.526796587239783,-0.01576531195613029,1392249.8824390979,16264.946144774707,69664.9461447747
476.0,31.11655829278769,121.0773334274088,10353.629662839137,168.60927619905272,267.315298376184,12.505515942494004,-0.015788188991137986,DEPARTURE,0.931197316338191,12.505515942494004,-0.015788188991137986,1391913.8238703187,16262.782536533481,69662.78253653349
478.0,31.11641652634556,121.07380441945325,10381.399180694712,168.7309614740232,267.31347530164385,12.484387118778002,-0.015811029751461092,DEPARTURE,0.9299772380094725,12.484387118778002,-0.015811029751461092,1391577.5067197096,16260.625159550651,69660.62515955065
480.0,31.1162745549822,121.07027271771636,10408.99625453463,168.8523199388921,267.3116507622156,12.4634091105384,-0.01583383352019041,DEPARTURE,0.9287603852597678,12.4634091105384,-0.01583383352019041,1391240.931843542,16258.473976120345,69658.47397612035
482.0,31.11613237883695,121.06673833127336,10436.421955089483,168.97334744350758,267.30982476195265,12.442580910263757,-0.015856599549550765,DEPARTURE,0.9275468006110787,12.442580910263757,-0.015856599549550765,1390904.100103689,16256.328948682798,69656.3289486828
484.0,31.11598999805222,121.0632012692564,10463.677346734294,169.09403994030606,267.30799730492674,12.421901509744224,-0.015879327069171723,DEPARTURE,0.9263365255649239,12.421901509744224,-0.015879327069171723,1390567.012367455,16254.190039825731,69654.19003982573
486.0,31.115847412773427,121.05966154085274,10490.763487494838,169.21439348436817,267.3061683952307,12.401369901099471,-0.015902015290691907,DEPARTURE,0.925129600596939,12.401369901099471,-0.015902015290691907,1390229.669507402,16252.057212285725,69652.05721228573
488.0,31.115704623148936,121.05611915530297,10517.68142906,169.3344042330951,267.30433803698077,12.380985077617309,-0.015924663414324414,DEPARTURE,0.9239260651563179,12.380985077617309,-0.015924663414324414,1389892.0724011746,16249.930428949554,69649.93042894956
490.0,31.115561629329996,121.05257412189913,10544.432216798881,169.45406844558934,267.30250623431795,12.360746034437957,-0.01594727063346113,DEPARTURE,0.9227259576690485,12.360746034437957,-0.01594727063346113,1389554.2219313337,16247.809652855505,69647.8096528555
492.0,31.115418431470676,121.04902644998302,10571.01688978167,169.57338248180713,267.30067299140944,12.34065176911269,-0.015969836137912807,DEPARTURE,0.9215293155441062,12.34065176911269,-0.015969836137912807,1389216.1189851833,16245.694847194649,69645.69484719465
494.0,31.115275029727798,121.04547614894439,10597.436480803413,169.69234280153694,267.2988383124495,12.320701282060453,-0.01599235911774599,DEPARTURE,0.9203361751819283,12.320701282060453,-0.01599235911774599,1388877.7644546041,16243.585975312073,69643.58597531207
496.0,31.11513142426088,121.04192322821925,10623.69201641009,169.81094596324675,267.2970022016601,12.300893576941796,-0.016014838765585182,DEPARTURE,0.9191465719846303,12.300893576941796,-0.016014838765585182,1388539.1592358907,16241.483000708067,69641.48300070807
498.0,31.11498761523208,121.0383676972881,10649.784516926411,169.9291886228344,267.29516466329125,12.281227660965847,-0.016037274279341318,DEPARTURE,0.9179605403675322,12.281227660965847,-0.016037274279341318,1388200.3042295855,16239.385887039267,69639.38588703927
500.0,31.11484360280613,121.03480956567427,10675.714996484969,170.04706753230798,267.29332570162103,12.261702545143196,-0.01605966486297916,DEPARTURE,0.9167781137716556,12.261702545143196,-0.01605966486297916,1387861.2003403169,16237.29459811974,69637.29459811974
