time,lat,lon,alt,tas,ias,gs,mach,heading,pitch,roll,gamma,alpha,v_vertical,throttle,lift,drag,thrust,mass,fuel,load_factor,flaps,gear,spoilers,flight_phase,dist_to_dest
0.000000,40.080400,116.584864,10.000000,7.430735,0.000000,7.430735,0.000000,44.250163,0.000000,0.000000,0.000000,0.000000,0.000000,0.300000,0.000000,9.790424,489326.236689,329251.711407,126877.711407,1.000000,0,True,False,TAXI,10037104.806526
5.000000,40.080448,116.584924,0.000000,55.822340,7.427169,1.475236,0.021839,44.250163,0.000000,0.000000,0.000000,0.000000,0.000000,1.000000,5781.671642,954.553988,1625744.308089,329183.972061,126809.972061,0.001790,1,True,False,TAKEOFF_ROLL,10037097.432687
10.000000,40.082613,116.587681,0.000000,102.389116,55.822340,67.227089,0.164042,44.250163,0.000000,0.000000,0.000000,0.000000,0.000000,1.000000,326605.086877,53922.499843,1591842.437119,329117.645292,126743.645292,0.101159,1,True,False,TAKEOFF_ROLL,10036761.401369
15.000000,40.086343,116.592430,115.852520,118.084460,102.389116,115.788892,0.300886,44.250163,11.500000,0.000000,0.197501,11.500000,23.170504,1.000000,4762829.204763,525424.000753,1558343.157080,329052.714328,126678.714328,1.475470,1,True,False,ROTATION,10036182.632485
20.000000,40.090536,116.596474,211.466282,117.454662,117.428732,115.887523,0.347463,36.418959,15.000000,-20.000000,0.163538,3.684013,19.122752,0.599395,3088654.196369,329351.014467,921233.347219,329014.329605,126640.329605,0.899231,1,True,False,INITIAL_CLIMB,10035606.790900
25.000000,40.094663,116.600454,354.995639,117.604019,116.265590,114.046824,0.345984,36.418959,15.000000,0.000000,0.246580,5.629984,28.705871,0.605693,3826758.379260,390892.078197,926146.810656,328975.740154,126601.740154,1.185764,1,True,False,INITIAL_CLIMB,10035040.098661
30.000000,40.098682,116.604749,397.384845,115.765987,115.609003,115.455142,0.346989,39.260441,15.000000,11.789749,0.073298,0.871985,8.477841,0.604200,1848561.163138,249557.573388,916283.982854,328937.561655,126563.561655,0.560779,1,True,False,INITIAL_CLIMB,10034463.927555
35.000000,40.102384,116.609410,559.616996,118.820620,113.568844,114.304720,0.341731,43.924734,12.899734,7.540572,0.276584,8.700057,32.446430,0.622580,4848633.463643,505470.153476,942687.214329,328898.283021,126524.283021,1.489761,1,True,False,INITIAL_CLIMB,10033892.502839
40.000000,40.106469,116.614551,473.658290,127.254468,115.651435,126.087841,0.351397,43.902050,15.000000,0.549276,-0.135512,-0.847074,-17.191741,1.000000,-345633.362231,62481.315862,1498044.918694,328835.864483,126461.864483,-0.107139,0,False,False,DEPARTURE,10033262.166456
45.000000,40.111185,116.620564,610.042447,149.003449,124.378522,146.485502,0.375970,44.282445,5.505846,0.589026,0.184100,13.270095,27.276832,1.000000,6327483.648125,505119.465250,1499491.655779,328773.385664,126399.385664,1.961744,0,False,False,DEPARTURE,10032529.963243
50.000000,40.116262,116.627040,741.037955,159.899334,144.673917,157.738404,0.440913,44.289292,15.000000,0.024274,0.164590,4.451851,26.199101,1.000000,2965076.935156,165961.967244,1472596.500555,328712.027476,126338.027476,0.919499,0,False,False,DEPARTURE,10031741.512734
55.000000,40.121554,116.633793,963.687964,170.347839,154.265001,164.424649,0.473865,44.297081,15.000000,0.020289,0.264479,5.569712,44.530002,1.000000,4298961.831862,238906.477490,1453945.539020,328651.446412,126277.446412,1.333396,0,False,False,DEPARTURE,10030919.641906
60.000000,40.127264,116.641079,951.365241,177.421688,162.564126,177.404570,0.506124,44.296907,15.000000,0.015148,-0.013891,-0.153525,-2.464545,1.000000,-134357.399742,120603.189978,1428125.015916,328591.941203,126217.941203,-0.041681,0,False,False,DEPARTURE,10030032.888249
65.000000,40.132637,116.647941,1398.875414,189.483969,169.417145,167.013653,0.527067,44.314100,9.073726,0.022485,0.491951,9.869641,89.502035,0.989243,9520515.083715,661149.399219,1408952.307219,328533.234857,126159.234857,2.954011,0,False,False,DEPARTURE,10029198.079085
70.000000,40.135133,116.651128,666.893311,165.673711,176.986281,77.562017,0.565826,44.309729,15.000000,0.003326,-1.083588,-13.186702,-146.396421,0.868620,-14308205.118931,1240296.248835,1198140.265782,328483.312346,126109.312346,-4.440203,0,False,False,DEPARTURE,10028810.391909
75.000000,40.139392,116.656567,0.000000,249.382357,160.415013,132.381738,0.490561,44.312742,3.500000,0.012973,0.000000,65.584993,0.000000,1.000000,3481997.287279,196441.321239,1456148.281823,328422.639501,126048.639501,1.080753,0,False,False,DEPARTURE,10028148.688982
80.000000,40.139126,116.656227,1106.893728,221.533513,249.382357,8.279400,0.732848,44.337854,10.703230,0.013725,1.608178,10.703230,221.378746,0.269636,26621625.708113,2220820.850715,391673.589741,328406.319768,126032.319768,8.263310,0,False,False,DEPARTURE,10028190.072020
85.000000,40.139126,116.656227,1106.893728,0.000000,209.928145,0.000000,0.659292,44.337854,15.000000,-0.024269,1.608178,-77.141821,0.000000,0.548125,-129137463.712474,63744110.765039,757094.537394,328374.774162,126000.774162,8.263310,0,False,False,DEPARTURE,10028190.072020
90.000000,40.139126,116.656227,1106.893728,0.000000,0.000000,0.000000,0.000000,44.337854,15.000000,-0.024269,1.608178,-77.141821,0.000000,1.000000,-1978.452936,736.066635,1532832.365394,328310.906147,125936.906147,8.263310,0,False,False,DEPARTURE,10028190.072020
95.000000,40.139126,116.656227,1106.893728,0.000000,0.000000,0.000000,0.000000,44.337854,15.000000,-0.024269,1.608178,-77.141821,0.000000,1.000000,-1978.452936,736.066635,1532832.365394,328247.038132,125873.038132,8.263310,0,False,False,DEPARTURE,10028190.072020
100.000000,40.139126,116.656227,1106.893728,0.000000,0.000000,0.000000,0.000000,44.337854,15.000000,-0.024269,1.608178,-77.141821,0.000000,1.000000,-1978.452936,736.066635,1532832.365394,328183.170117,125809.170117,8.263310,0,False,False,DEPARTURE,10028190.072020
105.000000,40.139126,116.656227,1106.893728,0.000000,0.000000,0.000000,0.000000,44.337854,15.000000,-0.024269,1.608178,-77.141821,0.000000,1.000000,-1978.452936,736.066635,1532832.365394,328119.302101,125745.302101,8.263310,0,False,False,DEPARTURE,10028190.072020
110.000000,40.139126,116.656227,1106.893728,0.000000,0.000000,0.000000,0.000000,44.337854,15.000000,-0.024269,1.608178,-77.141821,0.000000,1.000000,-1978.452936,736.066635,1532832.365394,328055.434086,125681.434086,8.263310,0,False,False,DEPARTURE,10028190.072020
115.000000,40.139126,116.656227,1106.893728,0.000000,0.000000,0.000000,0.000000,44.337854,15.000000,-0.024269,1.608178,-77.141821,0.000000,1.000000,-1978.452936,736.066635,1532832.365394,327991.566071,125617.566071,8.263310,0,False,False,DEPARTURE,10028190.072020
120.000000,40.139126,116.656227,1106.893728,0.000000,0.000000,0.000000,0.000000,44.337854,15.000000,-0.024269,1.608178,-77.141821,0.000000,1.000000,-1978.452936,736.066635,1532832.365394,327927.698056,125553.698056,8.263310,0,False,False,DEPARTURE,10028190.072020
125.000000,40.139126,116.656227,1106.893728,0.000000,0.000000,0.000000,0.000000,44.337854,15.000000,-0.024269,1.608178,-77.141821,0.000000,1.000000,-1978.452936,736.066635,1532832.365394,327863.830040,125489.830040,8.263310,0,False,False,DEPARTURE,10028190.072020
130.000000,40.139126,116.656227,1106.893728,0.000000,0.000000,0.000000,0.000000,44.337854,15.000000,-0.024269,1.608178,-77.141821,0.000000,1.000000,-1978.452936,736.066635,1532832.365394,327799.962025,125425.962025,8.263310,0,False,False,DEPARTURE,10028190.072020
135.000000,40.139126,116.656227,1106.893728,0.000000,0.000000,0.000000,0.000000,44.337854,15.000000,-0.024269,1.608178,-77.141821,0.000000,1.000000,-1978.452936,736.066635,1532832.365394,327736.094010,125362.094010,8.263310,0,False,False,DEPARTURE,10028190.072020
140.000000,40.139126,116.656227,1106.893728,0.000000,0.000000,0.000000,0.000000,44.337854,15.000000,-0.024269,1.608178,-77.141821,0.000000,1.000000,-1978.452936,736.066635,1532832.365394,327672.225995,125298.225995,8.263310,0,False,False,DEPARTURE,10028190.072020
145.000000,40.139126,116.656227,1106.893728,0.000000,0.000000,0.000000,0.000000,44.337854,15.000000,-0.024269,1.608178,-77.141821,0.000000,1.000000,-1978.452936,736.066635,1532832.365394,327608.357980,125234.357980,8.263310,0,False,False,DEPARTURE,10028190.072020
150.000000,40.139126,116.656227,1106.893728,0.000000,0.000000,0.000000,0.000000,44.337854,15.000000,-0.024269,1.608178,-77.141821,0.000000,1.000000,-1978.452936,736.066635,1532832.365394,327544.489964,125170.489964,8.263310,0,False,False,DEPARTURE,10028190.072020
155.000000,40.139126,116.656227,1106.893728,0.000000,0.000000,0.000000,0.000000,44.337854,15.000000,-0.024269,1.608178,-77.141821,0.000000,1.000000,-1978.452936,736.066635,1532832.365394,327480.621949,125106.621949,8.263310,0,False,False,DEPARTURE,10028190.072020
160.000000,40.139126,116.656227,1106.893728,0.000000,0.000000,0.000000,0.000000,44.337854,15.000000,-0.024269,1.608178,-77.141821,0.000000,1.000000,-1978.452936,736.066635,1532832.365394,327416.753934,125042.753934,8.263310,0,False,False,DEPARTURE,10028190.072020
165.000000,40.139126,116.656227,1106.893728,0.000000,0.000000,0.000000,0.000000,44.337854,15.000000,-0.024269,1.608178,-77.141821,0.000000,1.000000,-1978.452936,736.066635,1532832.365394,327352.885919,124978.885919,8.263310,0,False,False,DEPARTURE,10028190.072020
170.000000,40.139126,116.656227,1106.893728,0.000000,0.000000,0.000000,0.000000,44.337854,15.000000,-0.024269,1.608178,-77.141821,0.000000,1.000000,-1978.452936,736.066635,1532832.365394,327289.017903,124915.017903,8.263310,0,False,False,DEPARTURE,10028190.072020
175.000000,40.139126,116.656227,1106.893728,0.000000,0.000000,0.000000,0.000000,44.337854,15.000000,-0.024269,1.608178,-77.141821,0.000000,1.000000,-1978.452936,736.066635,1532832.365394,327225.149888,124851.149888,8.263310,0,False,False,DEPARTURE,10028190.072020
180.000000,40.139126,116.656227,1106.893728,0.000000,0.000000,0.000000,0.000000,44.337854,15.000000,-0.024269,1.608178,-77.141821,0.000000,1.000000,-1978.452936,736.066635,1532832.365394,327161.281873,124787.281873,8.263310,0,False,False,DEPARTURE,10028190.072020
185.000000,40.139126,116.656227,1106.893728,0.000000,0.000000,0.000000,0.000000,44.337854,15.000000,-0.024269,1.608178,-77.141821,0.000000,1.000000,-1978.452936,736.066635,1532832.365394,327097.413858,124723.413858,8.263310,0,False,False,DEPARTURE,10028190.072020
190.000000,40.139126,116.656227,1106.893728,0.000000,0.000000,0.000000,0.000000,44.337854,15.000000,-0.024269,1.608178,-77.141821,0.000000,1.000000,-1978.452936,736.066635,1532832.365394,327033.545843,124659.545843,8.263310,0,False,False,DEPARTURE,10028190.072020
195.000000,40.139126,116.656227,1106.893728,0.000000,0.000000,0.000000,0.000000,44.337854,15.000000,-0.024269,1.608178,-77.141821,0.000000,1.000000,-1978.452936,736.066635,1532832.365394,326969.677827,124595.677827,8.263310,0,False,False,DEPARTURE,10028190.072020
200.000000,40.139126,116.656227,1106.893728,0.000000,0.000000,0.000000,0.000000,44.337854,15.000000,-0.024269,1.608178,-77.141821,0.000000,1.000000,-1978.452936,736.066635,1532832.365394,326905.809812,124531.809812,8.263310,0,False,False,DEPARTURE,10028190.072020
205.000000,40.139126,116.656227,1106.893728,0.000000,0.000000,0.000000,0.000000,44.337854,15.000000,-0.024269,1.608178,-77.141821,0.000000,1.000000,-1978.452936,736.066635,1532832.365394,326841.941797,124467.941797,8.263310,0,False,False,DEPARTURE,10028190.072020
210.000000,40.139126,116.656227,1106.893728,0.000000,0.000000,0.000000,0.000000,44.337854,15.000000,-0.024269,1.608178,-77.141821,0.000000,1.000000,-1978.452936,736.066635,1532832.365394,326778.073782,124404.073782,8.263310,0,False,False,DEPARTURE,10028190.072020
215.000000,40.139126,116.656227,1106.893728,0.000000,0.000000,0.000000,0.000000,44.337854,15.000000,-0.024269,1.608178,-77.141821,0.000000,1.000000,-1978.452936,736.066635,1532832.365394,326714.205766,124340.205766,8.263310,0,False,False,DEPARTURE,10028190.072020
220.000000,40.139126,116.656227,1106.893728,0.000000,0.000000,0.000000,0.000000,44.337854,15.000000,-0.024269,1.608178,-77.141821,0.000000,1.000000,-1978.452936,736.066635,1532832.365394,326650.337751,124276.337751,8.263310,0,False,False,DEPARTURE,10028190.072020
225.000000,40.139126,116.656227,1106.893728,0.000000,0.000000,0.000000,0.000000,44.337854,15.000000,-0.024269,1.608178,-77.141821,0.000000,1.000000,-1978.452936,736.066635,1532832.365394,326586.469736,124212.469736,8.263310,0,False,False,DEPARTURE,10028190.072020
230.000000,40.139126,116.656227,1106.893728,0.000000,0.000000,0.000000,0.000000,44.337854,15.000000,-0.024269,1.608178,-77.141821,0.000000,1.000000,-1978.452936,736.066635,1532832.365394,326522.601721,124148.601721,8.263310,0,False,False,DEPARTURE,10028190.072020
235.000000,40.139126,116.656227,1106.893728,0.000000,0.000000,0.000000,0.000000,44.337854,15.000000,-0.024269,1.608178,-77.141821,0.000000,1.000000,-1978.452936,736.066635,1532832.365394,326458.733706,124084.733706,8.263310,0,False,False,DEPARTURE,10028190.072020
240.000000,40.139126,116.656227,1106.893728,0.000000,0.000000,0.000000,0.000000,44.337854,15.000000,-0.024269,1.608178,-77.141821,0.000000,1.000000,-1978.452936,736.066635,1532832.365394,326394.865690,124020.865690,8.263310,0,False,False,DEPARTURE,10028190.072020
245.000000,40.139126,116.656227,1106.893728,0.000000,0.000000,0.000000,0.000000,44.337854,15.000000,-0.024269,1.608178,-77.141821,0.000000,1.000000,-1978.452936,736.066635,1532832.365394,326330.997675,123956.997675,8.263310,0,False,False,DEPARTURE,10028190.072020
250.000000,40.139126,116.656227,1106.893728,0.000000,0.000000,0.000000,0.000000,44.337854,15.000000,-0.024269,1.608178,-77.141821,0.000000,1.000000,-1978.452936,736.066635,1532832.365394,326267.129660,123893.129660,8.263310,0,False,False,DEPARTURE,10028190.072020
255.000000,40.139126,116.656227,1106.893728,0.000000,0.000000,0.000000,0.000000,44.337854,15.000000,-0.024269,1.608178,-77.141821,0.000000,1.000000,-1978.452936,736.066635,1532832.365394,326203.261645,123829.261645,8.263310,0,False,False,DEPARTURE,10028190.072020
260.000000,40.139126,116.656227,1106.893728,0.000000,0.000000,0.000000,0.000000,44.337854,15.000000,-0.024269,1.608178,-77.141821,0.000000,1.000000,-1978.452936,736.066635,1532832.365394,326139.393629,123765.393629,8.263310,0,False,False,DEPARTURE,10028190.072020
265.000000,40.139126,116.656227,1106.893728,0.000000,0.000000,0.000000,0.000000,44.337854,15.000000,-0.024269,1.608178,-77.141821,0.000000,1.000000,-1978.452936,736.066635,1532832.365394,326075.525614,123701.525614,8.263310,0,False,False,DEPARTURE,10028190.072020
270.000000,40.139126,116.656227,1106.893728,0.000000,0.000000,0.000000,0.000000,44.337854,15.000000,-0.024269,1.608178,-77.141821,0.000000,1.000000,-1978.452936,736.066635,1532832.365394,326011.657599,123637.657599,8.263310,0,False,False,DEPARTURE,10028190.072020
275.000000,40.139126,116.656227,1106.893728,0.000000,0.000000,0.000000,0.000000,44.337854,15.000000,-0.024269,1.608178,-77.141821,0.000000,1.000000,-1978.452936,736.066635,1532832.365394,325947.789584,123573.789584,8.263310,0,False,False,DEPARTURE,10028190.072020
280.000000,40.139126,116.656227,1106.893728,0.000000,0.000000,0.000000,0.000000,44.337854,15.000000,-0.024269,1.608178,-77.141821,0.000000,1.000000,-1978.452936,736.066635,1532832.365394,325883.921568,123509.921568,8.263310,0,False,False,DEPARTURE,10028190.072020
285.000000,40.139126,116.656227,1106.893728,0.000000,0.000000,0.000000,0.000000,44.337854,15.000000,-0.024269,1.608178,-77.141821,0.000000,1.000000,-1978.452936,736.066635,1532832.365394,325820.053553,123446.053553,8.263310,0,False,False,DEPARTURE,10028190.072020
290.000000,40.139126,116.656227,1106.893728,0.000000,0.000000,0.000000,0.000000,44.337854,15.000000,-0.024269,1.608178,-77.141821,0.000000,1.000000,-1978.452936,736.066635,1532832.365394,325756.185538,123382.185538,8.263310,0,False,False,DEPARTURE,10028190.072020
295.000000,40.139126,116.656227,1106.893728,0.000000,0.000000,0.000000,0.000000,44.337854,15.000000,-0.024269,1.608178,-77.141821,0.000000,1.000000,-1978.452936,736.066635,1532832.365394,325692.317523,123318.317523,8.263310,0,False,False,DEPARTURE,10028190.072020
300.000000,40.139126,116.656227,1106.893728,0.000000,0.000000,0.000000,0.000000,44.337854,15.000000,-0.024269,1.608178,-77.141821,0.000000,1.000000,-1978.452936,736.066635,1532832.365394,325628.449508,123254.449508,8.263310,0,False,False,DEPARTURE,10028190.072020
305.000000,40.139126,116.656227,1106.893728,0.000000,0.000000,0.000000,0.000000,44.337854,15.000000,-0.024269,1.608178,-77.141821,0.000000,1.000000,-1978.452936,736.066635,1532832.365394,325564.581492,123190.581492,8.263310,0,False,False,DEPARTURE,10028190.072020
310.000000,40.139126,116.656227,1106.893728,0.000000,0.000000,0.000000,0.000000,44.337854,15.000000,-0.024269,1.608178,-77.141821,0.000000,1.000000,-1978.452936,736.066635,1532832.365394,325500.713477,123126.713477,8.263310,0,False,False,DEPARTURE,10028190.072020
315.000000,40.139126,116.656227,1106.893728,0.000000,0.000000,0.000000,0.000000,44.337854,15.000000,-0.024269,1.608178,-77.141821,0.000000,1.000000,-1978.452936,736.066635,1532832.365394,325436.845462,123062.845462,8.263310,0,False,False,DEPARTURE,10028190.072020
320.000000,40.139126,116.656227,1106.893728,0.000000,0.000000,0.000000,0.000000,44.337854,15.000000,-0.024269,1.608178,-77.141821,0.000000,1.000000,-1978.452936,736.066635,1532832.365394,325372.977447,122998.977447,8.263310,0,False,False,DEPARTURE,10028190.072020
325.000000,40.139126,116.656227,1106.893728,0.000000,0.000000,0.000000,0.000000,44.337854,15.000000,-0.024269,1.608178,-77.141821,0.000000,1.000000,-1978.452936,736.066635,1532832.365394,325309.109431,122935.109431,8.263310,0,False,False,DEPARTURE,10028190.072020
330.000000,40.139126,116.656227,1106.893728,0.000000,0.000000,0.000000,0.000000,44.337854,15.000000,-0.024269,1.608178,-77.141821,0.000000,1.000000,-1978.452936,736.066635,1532832.365394,325245.241416,122871.241416,8.263310,0,False,False,DEPARTURE,10028190.072020
335.000000,40.139126,116.656227,1106.893728,0.000000,0.000000,0.000000,0.000000,44.337854,15.000000,-0.024269,1.608178,-77.141821,0.000000,1.000000,-1978.452936,736.066635,1532832.365394,325181.373401,122807.373401,8.263310,0,False,False,DEPARTURE,10028190.072020
340.000000,40.139126,116.656227,1106.893728,0.000000,0.000000,0.000000,0.000000,44.337854,15.000000,-0.024269,1.608178,-77.141821,0.000000,1.000000,-1978.452936,736.066635,1532832.365394,325117.505386,122743.505386,8.263310,0,False,False,DEPARTURE,10028190.072020
345.000000,40.139126,116.656227,1106.893728,0.000000,0.000000,0.000000,0.000000,44.337854,15.000000,-0.024269,1.608178,-77.141821,0.000000,1.000000,-1978.452936,736.066635,1532832.365394,325053.637371,122679.637371,8.263310,0,False,False,DEPARTURE,10028190.072020
350.000000,40.139126,116.656227,1106.893728,0.000000,0.000000,0.000000,0.000000,44.337854,15.000000,-0.024269,1.608178,-77.141821,0.000000,1.000000,-1978.452936,736.066635,1532832.365394,324989.769355,122615.769355,8.263310,0,False,False,DEPARTURE,10028190.072020
355.000000,40.139126,116.656227,1106.893728,0.000000,0.000000,0.000000,0.000000,44.337854,15.000000,-0.024269,1.608178,-77.141821,0.000000,1.000000,-1978.452936,736.066635,1532832.365394,324925.901340,122551.901340,8.263310,0,False,False,DEPARTURE,10028190.072020
360.000000,40.139126,116.656227,1106.893728,0.000000,0.000000,0.000000,0.000000,44.337854,15.000000,-0.024269,1.608178,-77.141821,0.000000,1.000000,-1978.452936,736.066635,1532832.365394,324862.033325,122488.033325,8.263310,0,False,False,DEPARTURE,10028190.072020
365.000000,40.139126,116.656227,1106.893728,0.000000,0.000000,0.000000,0.000000,44.337854,15.000000,-0.024269,1.608178,-77.141821,0.000000,1.000000,-1978.452936,736.066635,1532832.365394,324798.165310,122424.165310,8.263310,0,False,False,DEPARTURE,10028190.072020
370.000000,40.139126,116.656227,1106.893728,0.000000,0.000000,0.000000,0.000000,44.337854,15.000000,-0.024269,1.608178,-77.141821,0.000000,1.000000,-1978.452936,736.066635,1532832.365394,324734.297294,122360.297294,8.263310,0,False,False,DEPARTURE,10028190.072020
375.000000,40.139126,116.656227,1106.893728,0.000000,0.000000,0.000000,0.000000,44.337854,15.000000,-0.024269,1.608178,-77.141821,0.000000,1.000000,-1978.452936,736.066635,1532832.365394,324670.429279,122296.429279,8.263310,0,False,False,DEPARTURE,10028190.072020
380.000000,40.139126,116.656227,1106.893728,0.000000,0.000000,0.000000,0.000000,44.337854,15.000000,-0.024269,1.608178,-77.141821,0.000000,1.000000,-1978.452936,736.066635,1532832.365394,324606.561264,122232.561264,8.263310,0,False,False,DEPARTURE,10028190.072020
385.000000,40.139126,116.656227,1106.893728,0.000000,0.000000,0.000000,0.000000,44.337854,15.000000,-0.024269,1.608178,-77.141821,0.000000,1.000000,-1978.452936,736.066635,1532832.365394,324542.693249,122168.693249,8.263310,0,False,False,DEPARTURE,10028190.072020
390.000000,40.139126,116.656227,1106.893728,0.000000,0.000000,0.000000,0.000000,44.337854,15.000000,-0.024269,1.608178,-77.141821,0.000000,1.000000,-1978.452936,736.066635,1532832.365394,324478.825234,122104.825234,8.263310,0,False,False,DEPARTURE,10028190.072020
395.000000,40.139126,116.656227,1106.893728,0.000000,0.000000,0.000000,0.000000,44.337854,15.000000,-0.024269,1.608178,-77.141821,0.000000,1.000000,-1978.452936,736.066635,1532832.365394,324414.957218,122040.957218,8.263310,0,False,False,DEPARTURE,10028190.072020
400.000000,40.139126,116.656227,1106.893728,0.000000,0.000000,0.000000,0.000000,44.337854,15.000000,-0.024269,1.608178,-77.141821,0.000000,1.000000,-1978.452936,736.066635,1532832.365394,324351.089203,121977.089203,8.263310,0,False,False,DEPARTURE,10028190.072020
405.000000,40.139126,116.656227,1106.893728,0.000000,0.000000,0.000000,0.000000,44.337854,15.000000,-0.024269,1.608178,-77.141821,0.000000,1.000000,-1978.452936,736.066635,1532832.365394,324287.221188,121913.221188,8.263310,0,False,False,DEPARTURE,10028190.072020
410.000000,40.139126,116.656227,1106.893728,0.000000,0.000000,0.000000,0.000000,44.337854,15.000000,-0.024269,1.608178,-77.141821,0.000000,1.000000,-1978.452936,736.066635,1532832.365394,324223.353173,121849.353173,8.263310,0,False,False,DEPARTURE,10028190.072020
415.000000,40.139126,116.656227,1106.893728,0.000000,0.000000,0.000000,0.000000,44.337854,15.000000,-0.024269,1.608178,-77.141821,0.000000,1.000000,-1978.452936,736.066635,1532832.365394,324159.485157,121785.485157,8.263310,0,False,False,DEPARTURE,10028190.072020
420.000000,40.139126,116.656227,1106.893728,0.000000,0.000000,0.000000,0.000000,44.337854,15.000000,-0.024269,1.608178,-77.141821,0.000000,1.000000,-1978.452936,736.066635,1532832.365394,324095.617142,121721.617142,8.263310,0,False,False,DEPARTURE,10028190.072020
425.000000,40.139126,116.656227,1106.893728,0.000000,0.000000,0.000000,0.000000,44.337854,15.000000,-0.024269,1.608178,-77.141821,0.000000,1.000000,-1978.452936,736.066635,1532832.365394,324031.749127,121657.749127,8.263310,0,False,False,DEPARTURE,10028190.072020
430.000000,40.139126,116.656227,1106.893728,0.000000,0.000000,0.000000,0.000000,44.337854,15.000000,-0.024269,1.608178,-77.141821,0.000000,1.000000,-1978.452936,736.066635,1532832.365394,323967.881112,121593.881112,8.263310,0,False,False,DEPARTURE,10028190.072020
435.000000,40.139126,116.656227,1106.893728,0.000000,0.000000,0.000000,0.000000,44.337854,15.000000,-0.024269,1.608178,-77.141821,0.000000,1.000000,-1978.452936,736.066635,1532832.365394,323904.013097,121530.013097,8.263310,0,False,False,DEPARTURE,10028190.072020
440.000000,40.139126,116.656227,1106.893728,0.000000,0.000000,0.000000,0.000000,44.337854,15.000000,-0.024269,1.608178,-77.141821,0.000000,1.000000,-1978.452936,736.066635,1532832.365394,323840.145081,121466.145081,8.263310,0,False,False,DEPARTURE,10028190.072020
445.000000,40.139126,116.656227,1106.893728,0.000000,0.000000,0.000000,0.000000,44.337854,15.000000,-0.024269,1.608178,-77.141821,0.000000,1.000000,-1978.452936,736.066635,1532832.365394,323776.277066,121402.277066,8.263310,0,False,False,DEPARTURE,10028190.072020
450.000000,40.139126,116.656227,1106.893728,0.000000,0.000000,0.000000,0.000000,44.337854,15.000000,-0.024269,1.608178,-77.141821,0.000000,1.000000,-1978.452936,736.066635,1532832.365394,323712.409051,121338.409051,8.263310,0,False,False,DEPARTURE,10028190.072020
455.000000,40.139126,116.656227,1106.893728,0.000000,0.000000,0.000000,0.000000,44.337854,15.000000,-0.024269,1.608178,-77.141821,0.000000,1.000000,-1978.452936,736.066635,1532832.365394,323648.541036,121274.541036,8.263310,0,False,False,DEPARTURE,10028190.072020
460.000000,40.139126,116.656227,1106.893728,0.000000,0.000000,0.000000,0.000000,44.337854,15.000000,-0.024269,1.608178,-77.141821,0.000000,1.000000,-1978.452936,736.066635,1532832.365394,323584.673020,121210.673020,8.263310,0,False,False,DEPARTURE,10028190.072020
465.000000,40.139126,116.656227,1106.893728,0.000000,0.000000,0.000000,0.000000,44.337854,15.000000,-0.024269,1.608178,-77.141821,0.000000,1.000000,-1978.452936,736.066635,1532832.365394,323520.805005,121146.805005,8.263310,0,False,False,DEPARTURE,10028190.072020
470.000000,40.139126,116.656227,1106.893728,0.000000,0.000000,0.000000,0.000000,44.337854,15.000000,-0.024269,1.608178,-77.141821,0.000000,1.000000,-1978.452936,736.066635,1532832.365394,323456.936990,121082.936990,8.263310,0,False,False,DEPARTURE,10028190.072020
475.000000,40.139126,116.656227,1106.893728,0.000000,0.000000,0.000000,0.000000,44.337854,15.000000,-0.024269,1.608178,-77.141821,0.000000,1.000000,-1978.452936,736.066635,1532832.365394,323393.068975,121019.068975,8.263310,0,False,False,DEPARTURE,10028190.072020
480.000000,40.139126,116.656227,1106.893728,0.000000,0.000000,0.000000,0.000000,44.337854,15.000000,-0.024269,1.608178,-77.141821,0.000000,1.000000,-1978.452936,736.066635,1532832.365394,323329.200959,120955.200959,8.263310,0,False,False,DEPARTURE,10028190.072020
485.000000,40.139126,116.656227,1106.893728,0.000000,0.000000,0.000000,0.000000,44.337854,15.000000,-0.024269,1.608178,-77.141821,0.000000,1.000000,-1978.452936,736.066635,1532832.365394,323265.332944,120891.332944,8.263310,0,False,False,DEPARTURE,10028190.072020
490.000000,40.139126,116.656227,1106.893728,0.000000,0.000000,0.000000,0.000000,44.337854,15.000000,-0.024269,1.608178,-77.141821,0.000000,1.000000,-1978.452936,736.066635,1532832.365394,323201.464929,120827.464929,8.263310,0,False,False,DEPARTURE,10028190.072020
495.000000,40.139126,116.656227,1106.893728,0.000000,0.000000,0.000000,0.000000,44.337854,15.000000,-0.024269,1.608178,-77.141821,0.000000,1.000000,-1978.452936,736.066635,1532832.365394,323137.596914,120763.596914,8.263310,0,False,False,DEPARTURE,10028190.072020
500.000000,40.139126,116.656227,1106.893728,0.000000,0.000000,0.000000,0.000000,44.337854,15.000000,-0.024269,1.608178,-77.141821,0.000000,1.000000,-1978.452936,736.066635,1532832.365394,323073.728899,120699.728899,8.263310,0,False,False,DEPARTURE,10028190.072020
505.000000,40.139126,116.656227,1106.893728,0.000000,0.000000,0.000000,0.000000,44.337854,15.000000,-0.024269,1.608178,-77.141821,0.000000,1.000000,-1978.452936,736.066635,1532832.365394,323009.860883,120635.860883,8.263310,0,False,False,DEPARTURE,10028190.072020
510.000000,40.139126,116.656227,1106.893728,0.000000,0.000000,0.000000,0.000000,44.337854,15.000000,-0.024269,1.608178,-77.141821,0.000000,1.000000,-1978.452936,736.066635,1532832.365394,322945.992868,120571.992868,8.263310,0,False,False,DEPARTURE,10028190.072020
515.000000,40.139126,116.656227,1106.893728,0.000000,0.000000,0.000000,0.000000,44.337854,15.000000,-0.024269,1.608178,-77.141821,0.000000,1.000000,-1978.452936,736.066635,1532832.365394,322882.124853,120508.124853,8.263310,0,False,False,DEPARTURE,10028190.072020
520.000000,40.139126,116.656227,1106.893728,0.000000,0.000000,0.000000,0.000000,44.337854,15.000000,-0.024269,1.608178,-77.141821,0.000000,1.000000,-1978.452936,736.066635,1532832.365394,322818.256838,120444.256838,8.263310,0,False,False,DEPARTURE,10028190.072020
525.000000,40.139126,116.656227,1106.893728,0.000000,0.000000,0.000000,0.000000,44.337854,15.000000,-0.024269,1.608178,-77.141821,0.000000,1.000000,-1978.452936,736.066635,1532832.365394,322754.388822,120380.388822,8.263310,0,False,False,DEPARTURE,10028190.072020
530.000000,40.139126,116.656227,1106.893728,0.000000,0.000000,0.000000,0.000000,44.337854,15.000000,-0.024269,1.608178,-77.141821,0.000000,1.000000,-1978.452936,736.066635,1532832.365394,322690.520807,120316.520807,8.263310,0,False,False,DEPARTURE,10028190.072020
535.000000,40.139126,116.656227,1106.893728,0.000000,0.000000,0.000000,0.000000,44.337854,15.000000,-0.024269,1.608178,-77.141821,0.000000,1.000000,-1978.452936,736.066635,1532832.365394,322626.652792,120252.652792,8.263310,0,False,False,DEPARTURE,10028190.072020
540.000000,40.139126,116.656227,1106.893728,0.000000,0.000000,0.000000,0.000000,44.337854,15.000000,-0.024269,1.608178,-77.141821,0.000000,1.000000,-1978.452936,736.066635,1532832.365394,322562.784777,120188.784777,8.263310,0,False,False,DEPARTURE,10028190.072020
545.000000,40.139126,116.656227,1106.893728,0.000000,0.000000,0.000000,0.000000,44.337854,15.000000,-0.024269,1.608178,-77.141821,0.000000,1.000000,-1978.452936,736.066635,1532832.365394,322498.916762,120124.916762,8.263310,0,False,False,DEPARTURE,10028190.072020
550.000000,40.139126,116.656227,1106.893728,0.000000,0.000000,0.000000,0.000000,44.337854,15.000000,-0.024269,1.608178,-77.141821,0.000000,1.000000,-1978.452936,736.066635,1532832.365394,322435.048746,120061.048746,8.263310,0,False,False,DEPARTURE,10028190.072020
555.000000,40.139126,116.656227,1106.893728,0.000000,0.000000,0.000000,0.000000,44.337854,15.000000,-0.024269,1.608178,-77.141821,0.000000,1.000000,-1978.452936,736.066635,1532832.365394,322371.180731,119997.180731,8.263310,0,False,False,DEPARTURE,10028190.072020
560.000000,40.139126,116.656227,1106.893728,0.000000,0.000000,0.000000,0.000000,44.337854,15.000000,-0.024269,1.608178,-77.141821,0.000000,1.000000,-1978.452936,736.066635,1532832.365394,322307.312716,119933.312716,8.263310,0,False,False,DEPARTURE,10028190.072020
565.000000,40.139126,116.656227,1106.893728,0.000000,0.000000,0.000000,0.000000,44.337854,15.000000,-0.024269,1.608178,-77.141821,0.000000,1.000000,-1978.452936,736.066635,1532832.365394,322243.444701,119869.444701,8.263310,0,False,False,DEPARTURE,10028190.072020
570.000000,40.139126,116.656227,1106.893728,0.000000,0.000000,0.000000,0.000000,44.337854,15.000000,-0.024269,1.608178,-77.141821,0.000000,1.000000,-1978.452936,736.066635,1532832.365394,322179.576685,119805.576685,8.263310,0,False,False,DEPARTURE,10028190.072020
575.000000,40.139126,116.656227,1106.893728,0.000000,0.000000,0.000000,0.000000,44.337854,15.000000,-0.024269,1.608178,-77.141821,0.000000,1.000000,-1978.452936,736.066635,1532832.365394,322115.708670,119741.708670,8.263310,0,False,False,DEPARTURE,10028190.072020
580.000000,40.139126,116.656227,1106.893728,0.000000,0.000000,0.000000,0.000000,44.337854,15.000000,-0.024269,1.608178,-77.141821,0.000000,1.000000,-1978.452936,736.066635,1532832.365394,322051.840655,119677.840655,8.263310,0,False,False,DEPARTURE,10028190.072020
585.000000,40.139126,116.656227,1106.893728,0.000000,0.000000,0.000000,0.000000,44.337854,15.000000,-0.024269,1.608178,-77.141821,0.000000,1.000000,-1978.452936,736.066635,1532832.365394,321987.972640,119613.972640,8.263310,0,False,False,DEPARTURE,10028190.072020
590.000000,40.139126,116.656227,1106.893728,0.000000,0.000000,0.000000,0.000000,44.337854,15.000000,-0.024269,1.608178,-77.141821,0.000000,1.000000,-1978.452936,736.066635,1532832.365394,321924.104625,119550.104625,8.263310,0,False,False,DEPARTURE,10028190.072020
595.000000,40.139126,116.656227,1106.893728,0.000000,0.000000,0.000000,0.000000,44.337854,15.000000,-0.024269,1.608178,-77.141821,0.000000,1.000000,-1978.452936,736.066635,1532832.365394,321860.236609,119486.236609,8.263310,0,False,False,DEPARTURE,10028190.072020
600.000000,40.139126,116.656227,1106.893728,0.000000,0.000000,0.000000,0.000000,44.337854,15.000000,-0.024269,1.608178,-77.141821,0.000000,1.000000,-1978.452936,736.066635,1532832.365394,321796.368594,119422.368594,8.263310,0,False,False,DEPARTURE,10028190.072020
605.000000,40.139126,116.656227,1106.893728,0.000000,0.000000,0.000000,0.000000,44.337854,15.000000,-0.024269,1.608178,-77.141821,0.000000,1.000000,-1978.452936,736.066635,1532832.365394,321732.500579,119358.500579,8.263310,0,False,False,DEPARTURE,10028190.072020
610.000000,40.139126,116.656227,1106.893728,0.000000,0.000000,0.000000,0.000000,44.337854,15.000000,-0.024269,1.608178,-77.141821,0.000000,1.000000,-1978.452936,736.066635,1532832.365394,321668.632564,119294.632564,8.263310,0,False,False,DEPARTURE,10028190.072020
615.000000,40.139126,116.656227,1106.893728,0.000000,0.000000,0.000000,0.000000,44.337854,15.000000,-0.024269,1.608178,-77.141821,0.000000,1.000000,-1978.452936,736.066635,1532832.365394,321604.764548,119230.764548,8.263310,0,False,False,DEPARTURE,10028190.072020
620.000000,40.139126,116.656227,1106.893728,0.000000,0.000000,0.000000,0.000000,44.337854,15.000000,-0.024269,1.608178,-77.141821,0.000000,1.000000,-1978.452936,736.066635,1532832.365394,321540.896533,119166.896533,8.263310,0,False,False,DEPARTURE,10028190.072020
625.000000,40.139126,116.656227,1106.893728,0.000000,0.000000,0.000000,0.000000,44.337854,15.000000,-0.024269,1.608178,-77.141821,0.000000,1.000000,-1978.452936,736.066635,1532832.365394,321477.028518,119103.028518,8.263310,0,False,False,DEPARTURE,10028190.072020
630.000000,40.139126,116.656227,1106.893728,0.000000,0.000000,0.000000,0.000000,44.337854,15.000000,-0.024269,1.608178,-77.141821,0.000000,1.000000,-1978.452936,736.066635,1532832.365394,321413.160503,119039.160503,8.263310,0,False,False,DEPARTURE,10028190.072020
635.000000,40.139126,116.656227,1106.893728,0.000000,0.000000,0.000000,0.000000,44.337854,15.000000,-0.024269,1.608178,-77.141821,0.000000,1.000000,-1978.452936,736.066635,1532832.365394,321349.292488,118975.292488,8.263310,0,False,False,DEPARTURE,10028190.072020
640.000000,40.139126,116.656227,1106.893728,0.000000,0.000000,0.000000,0.000000,44.337854,15.000000,-0.024269,1.608178,-77.141821,0.000000,1.000000,-1978.452936,736.066635,1532832.365394,321285.424472,118911.424472,8.263310,0,False,False,DEPARTURE,10028190.072020
645.000000,40.139126,116.656227,1106.893728,0.000000,0.000000,0.000000,0.000000,44.337854,15.000000,-0.024269,1.608178,-77.141821,0.000000,1.000000,-1978.452936,736.066635,1532832.365394,321221.556457,118847.556457,8.263310,0,False,False,DEPARTURE,10028190.072020
650.000000,40.139126,116.656227,1106.893728,0.000000,0.000000,0.000000,0.000000,44.337854,15.000000,-0.024269,1.608178,-77.141821,0.000000,1.000000,-1978.452936,736.066635,1532832.365394,321157.688442,118783.688442,8.263310,0,False,False,DEPARTURE,10028190.072020
655.000000,40.139126,116.656227,1106.893728,0.000000,0.000000,0.000000,0.000000,44.337854,15.000000,-0.024269,1.608178,-77.141821,0.000000,1.000000,-1978.452936,736.066635,1532832.365394,321093.820427,118719.820427,8.263310,0,False,False,DEPARTURE,10028190.072020
660.000000,40.139126,116.656227,1106.893728,0.000000,0.000000,0.000000,0.000000,44.337854,15.000000,-0.024269,1.608178,-77.141821,0.000000,1.000000,-1978.452936,736.066635,1532832.365394,321029.952411,118655.952411,8.263310,0,False,False,DEPARTURE,10028190.072020
665.000000,40.139126,116.656227,1106.893728,0.000000,0.000000,0.000000,0.000000,44.337854,15.000000,-0.024269,1.608178,-77.141821,0.000000,1.000000,-1978.452936,736.066635,1532832.365394,320966.084396,118592.084396,8.263310,0,False,False,DEPARTURE,10028190.072020
670.000000,40.139126,116.656227,1106.893728,0.000000,0.000000,0.000000,0.000000,44.337854,15.000000,-0.024269,1.608178,-77.141821,0.000000,1.000000,-1978.452936,736.066635,1532832.365394,320902.216381,118528.216381,8.263310,0,False,False,DEPARTURE,10028190.072020
675.000000,40.139126,116.656227,1106.893728,0.000000,0.000000,0.000000,0.000000,44.337854,15.000000,-0.024269,1.608178,-77.141821,0.000000,1.000000,-1978.452936,736.066635,1532832.365394,320838.348366,118464.348366,8.263310,0,False,False,DEPARTURE,10028190.072020
680.000000,40.139126,116.656227,1106.893728,0.000000,0.000000,0.000000,0.000000,44.337854,15.000000,-0.024269,1.608178,-77.141821,0.000000,1.000000,-1978.452936,736.066635,1532832.365394,320774.480351,118400.480351,8.263310,0,False,False,DEPARTURE,10028190.072020
685.000000,40.139126,116.656227,1106.893728,0.000000,0.000000,0.000000,0.000000,44.337854,15.000000,-0.024269,1.608178,-77.141821,0.000000,1.000000,-1978.452936,736.066635,1532832.365394,320710.612335,118336.612335,8.263310,0,False,False,DEPARTURE,10028190.072020
690.000000,40.139126,116.656227,1106.893728,0.000000,0.000000,0.000000,0.000000,44.337854,15.000000,-0.024269,1.608178,-77.141821,0.000000,1.000000,-1978.452936,736.066635,1532832.365394,320646.744320,118272.744320,8.263310,0,False,False,DEPARTURE,10028190.072020
695.000000,40.139126,116.656227,1106.893728,0.000000,0.000000,0.000000,0.000000,44.337854,15.000000,-0.024269,1.608178,-77.141821,0.000000,1.000000,-1978.452936,736.066635,1532832.365394,320582.876305,118208.876305,8.263310,0,False,False,DEPARTURE,10028190.072020
700.000000,40.139126,116.656227,1106.893728,0.000000,0.000000,0.000000,0.000000,44.337854,15.000000,-0.024269,1.608178,-77.141821,0.000000,1.000000,-1978.452936,736.066635,1532832.365394,320519.008290,118145.008290,8.263310,0,False,False,DEPARTURE,10028190.072020
705.000000,40.139126,116.656227,1106.893728,0.000000,0.000000,0.000000,0.000000,44.337854,15.000000,-0.024269,1.608178,-77.141821,0.000000,1.000000,-1978.452936,736.066635,1532832.365394,320455.140274,118081.140274,8.263310,0,False,False,DEPARTURE,10028190.072020
710.000000,40.139126,116.656227,1106.893728,0.000000,0.000000,0.000000,0.000000,44.337854,15.000000,-0.024269,1.608178,-77.141821,0.000000,1.000000,-1978.452936,736.066635,1532832.365394,320391.272259,118017.272259,8.263310,0,False,False,DEPARTURE,10028190.072020
715.000000,40.139126,116.656227,1106.893728,0.000000,0.000000,0.000000,0.000000,44.337854,15.000000,-0.024269,1.608178,-77.141821,0.000000,1.000000,-1978.452936,736.066635,1532832.365394,320327.404244,117953.404244,8.263310,0,False,False,DEPARTURE,10028190.072020
720.000000,40.139126,116.656227,1106.893728,0.000000,0.000000,0.000000,0.000000,44.337854,15.000000,-0.024269,1.608178,-77.141821,0.000000,1.000000,-1978.452936,736.066635,1532832.365394,320263.536229,117889.536229,8.263310,0,False,False,DEPARTURE,10028190.072020
725.000000,40.139126,116.656227,1106.893728,0.000000,0.000000,0.000000,0.000000,44.337854,15.000000,-0.024269,1.608178,-77.141821,0.000000,1.000000,-1978.452936,736.066635,1532832.365394,320199.668213,117825.668213,8.263310,0,False,False,DEPARTURE,10028190.072020
730.000000,40.139126,116.656227,1106.893728,0.000000,0.000000,0.000000,0.000000,44.337854,15.000000,-0.024269,1.608178,-77.141821,0.000000,1.000000,-1978.452936,736.066635,1532832.365394,320135.800198,117761.800198,8.263310,0,False,False,DEPARTURE,10028190.072020
735.000000,40.139126,116.656227,1106.893728,0.000000,0.000000,0.000000,0.000000,44.337854,15.000000,-0.024269,1.608178,-77.141821,0.000000,1.000000,-1978.452936,736.066635,1532832.365394,320071.932183,117697.932183,8.263310,0,False,False,DEPARTURE,10028190.072020
740.000000,40.139126,116.656227,1106.893728,0.000000,0.000000,0.000000,0.000000,44.337854,15.000000,-0.024269,1.608178,-77.141821,0.000000,1.000000,-1978.452936,736.066635,1532832.365394,320008.064168,117634.064168,8.263310,0,False,False,DEPARTURE,10028190.072020
745.000000,40.139126,116.656227,1106.893728,0.000000,0.000000,0.000000,0.000000,44.337854,15.000000,-0.024269,1.608178,-77.141821,0.000000,1.000000,-1978.452936,736.066635,1532832.365394,319944.196153,117570.196153,8.263310,0,False,False,DEPARTURE,10028190.072020
750.000000,40.139126,116.656227,1106.893728,0.000000,0.000000,0.000000,0.000000,44.337854,15.000000,-0.024269,1.608178,-77.141821,0.000000,1.000000,-1978.452936,736.066635,1532832.365394,319880.328137,117506.328137,8.263310,0,False,False,DEPARTURE,10028190.072020
755.000000,40.139126,116.656227,1106.893728,0.000000,0.000000,0.000000,0.000000,44.337854,15.000000,-0.024269,1.608178,-77.141821,0.000000,1.000000,-1978.452936,736.066635,1532832.365394,319816.460122,117442.460122,8.263310,0,False,False,DEPARTURE,10028190.072020
760.000000,40.139126,116.656227,1106.893728,0.000000,0.000000,0.000000,0.000000,44.337854,15.000000,-0.024269,1.608178,-77.141821,0.000000,1.000000,-1978.452936,736.066635,1532832.365394,319752.592107,117378.592107,8.263310,0,False,False,DEPARTURE,10028190.072020
765.000000,40.139126,116.656227,1106.893728,0.000000,0.000000,0.000000,0.000000,44.337854,15.000000,-0.024269,1.608178,-77.141821,0.000000,1.000000,-1978.452936,736.066635,1532832.365394,319688.724092,117314.724092,8.263310,0,False,False,DEPARTURE,10028190.072020
770.000000,40.139126,116.656227,1106.893728,0.000000,0.000000,0.000000,0.000000,44.337854,15.000000,-0.024269,1.608178,-77.141821,0.000000,1.000000,-1978.452936,736.066635,1532832.365394,319624.856076,117250.856076,8.263310,0,False,False,DEPARTURE,10028190.072020
775.000000,40.139126,116.656227,1106.893728,0.000000,0.000000,0.000000,0.000000,44.337854,15.000000,-0.024269,1.608178,-77.141821,0.000000,1.000000,-1978.452936,736.066635,1532832.365394,319560.988061,117186.988061,8.263310,0,False,False,DEPARTURE,10028190.072020
780.000000,40.139126,116.656227,1106.893728,0.000000,0.000000,0.000000,0.000000,44.337854,15.000000,-0.024269,1.608178,-77.141821,0.000000,1.000000,-1978.452936,736.066635,1532832.365394,319497.120046,117123.120046,8.263310,0,False,False,DEPARTURE,10028190.072020
785.000000,40.139126,116.656227,1106.893728,0.000000,0.000000,0.000000,0.000000,44.337854,15.000000,-0.024269,1.608178,-77.141821,0.000000,1.000000,-1978.452936,736.066635,1532832.365394,319433.252031,117059.252031,8.263310,0,False,False,DEPARTURE,10028190.072020
790.000000,40.139126,116.656227,1106.893728,0.000000,0.000000,0.000000,0.000000,44.337854,15.000000,-0.024269,1.608178,-77.141821,0.000000,1.000000,-1978.452936,736.066635,1532832.365394,319369.384016,116995.384016,8.263310,0,False,False,DEPARTURE,10028190.072020
795.000000,40.139126,116.656227,1106.893728,0.000000,0.000000,0.000000,0.000000,44.337854,15.000000,-0.024269,1.608178,-77.141821,0.000000,1.000000,-1978.452936,736.066635,1532832.365394,319305.516000,116931.516000,8.263310,0,False,False,DEPARTURE,10028190.072020
800.000000,40.139126,116.656227,1106.893728,0.000000,0.000000,0.000000,0.000000,44.337854,15.000000,-0.024269,1.608178,-77.141821,0.000000,1.000000,-1978.452936,736.066635,1532832.365394,319241.647985,116867.647985,8.263310,0,False,False,DEPARTURE,10028190.072020
805.000000,40.139126,116.656227,1106.893728,0.000000,0.000000,0.000000,0.000000,44.337854,15.000000,-0.024269,1.608178,-77.141821,0.000000,1.000000,-1978.452936,736.066635,1532832.365394,319177.779970,116803.779970,8.263310,0,False,False,DEPARTURE,10028190.072020
810.000000,40.139126,116.656227,1106.893728,0.000000,0.000000,0.000000,0.000000,44.337854,15.000000,-0.024269,1.608178,-77.141821,0.000000,1.000000,-1978.452936,736.066635,1532832.365394,319113.911955,116739.911955,8.263310,0,False,False,DEPARTURE,10028190.072020
815.000000,40.139126,116.656227,1106.893728,0.000000,0.000000,0.000000,0.000000,44.337854,15.000000,-0.024269,1.608178,-77.141821,0.000000,1.000000,-1978.452936,736.066635,1532832.365394,319050.043939,116676.043939,8.263310,0,False,False,DEPARTURE,10028190.072020
820.000000,40.139126,116.656227,1106.893728,0.000000,0.000000,0.000000,0.000000,44.337854,15.000000,-0.024269,1.608178,-77.141821,0.000000,1.000000,-1978.452936,736.066635,1532832.365394,318986.175924,116612.175924,8.263310,0,False,False,DEPARTURE,10028190.072020
825.000000,40.139126,116.656227,1106.893728,0.000000,0.000000,0.000000,0.000000,44.337854,15.000000,-0.024269,1.608178,-77.141821,0.000000,1.000000,-1978.452936,736.066635,1532832.365394,318922.307909,116548.307909,8.263310,0,False,False,DEPARTURE,10028190.072020
830.000000,40.139126,116.656227,1106.893728,0.000000,0.000000,0.000000,0.000000,44.337854,15.000000,-0.024269,1.608178,-77.141821,0.000000,1.000000,-1978.452936,736.066635,1532832.365394,318858.439894,116484.439894,8.263310,0,False,False,DEPARTURE,10028190.072020
835.000000,40.139126,116.656227,1106.893728,0.000000,0.000000,0.000000,0.000000,44.337854,15.000000,-0.024269,1.608178,-77.141821,0.000000,1.000000,-1978.452936,736.066635,1532832.365394,318794.571879,116420.571879,8.263310,0,False,False,DEPARTURE,10028190.072020
840.000000,40.139126,116.656227,1106.893728,0.000000,0.000000,0.000000,0.000000,44.337854,15.000000,-0.024269,1.608178,-77.141821,0.000000,1.000000,-1978.452936,736.066635,1532832.365394,318730.703863,116356.703863,8.263310,0,False,False,DEPARTURE,10028190.072020
845.000000,40.139126,116.656227,1106.893728,0.000000,0.000000,0.000000,0.000000,44.337854,15.000000,-0.024269,1.608178,-77.141821,0.000000,1.000000,-1978.452936,736.066635,1532832.365394,318666.835848,116292.835848,8.263310,0,False,False,DEPARTURE,10028190.072020
850.000000,40.139126,116.656227,1106.893728,0.000000,0.000000,0.000000,0.000000,44.337854,15.000000,-0.024269,1.608178,-77.141821,0.000000,1.000000,-1978.452936,736.066635,1532832.365394,318602.967833,116228.967833,8.263310,0,False,False,DEPARTURE,10028190.072020
855.000000,40.139126,116.656227,1106.893728,0.000000,0.000000,0.000000,0.000000,44.337854,15.000000,-0.024269,1.608178,-77.141821,0.000000,1.000000,-1978.452936,736.066635,1532832.365394,318539.099818,116165.099818,8.263310,0,False,False,DEPARTURE,10028190.072020
860.000000,40.139126,116.656227,1106.893728,0.000000,0.000000,0.000000,0.000000,44.337854,15.000000,-0.024269,1.608178,-77.141821,0.000000,1.000000,-1978.452936,736.066635,1532832.365394,318475.231802,116101.231802,8.263310,0,False,False,DEPARTURE,10028190.072020
865.000000,40.139126,116.656227,1106.893728,0.000000,0.000000,0.000000,0.000000,44.337854,15.000000,-0.024269,1.608178,-77.141821,0.000000,1.000000,-1978.452936,736.066635,1532832.365394,318411.363787,116037.363787,8.263310,0,False,False,DEPARTURE,10028190.072020
870.000000,40.139126,116.656227,1106.893728,0.000000,0.000000,0.000000,0.000000,44.337854,15.000000,-0.024269,1.608178,-77.141821,0.000000,1.000000,-1978.452936,736.066635,1532832.365394,318347.495772,115973.495772,8.263310,0,False,False,DEPARTURE,10028190.072020
875.000000,40.139126,116.656227,1106.893728,0.000000,0.000000,0.000000,0.000000,44.337854,15.000000,-0.024269,1.608178,-77.141821,0.000000,1.000000,-1978.452936,736.066635,1532832.365394,318283.627757,115909.627757,8.263310,0,False,False,DEPARTURE,10028190.072020
880.000000,40.139126,116.656227,1106.893728,0.000000,0.000000,0.000000,0.000000,44.337854,15.000000,-0.024269,1.608178,-77.141821,0.000000,1.000000,-1978.452936,736.066635,1532832.365394,318219.759742,115845.759742,8.263310,0,False,False,DEPARTURE,10028190.072020
885.000000,40.139126,116.656227,1106.893728,0.000000,0.000000,0.000000,0.000000,44.337854,15.000000,-0.024269,1.608178,-77.141821,0.000000,1.000000,-1978.452936,736.066635,1532832.365394,318155.891726,115781.891726,8.263310,0,False,False,DEPARTURE,10028190.072020
890.000000,40.139126,116.656227,1106.893728,0.000000,0.000000,0.000000,0.000000,44.337854,15.000000,-0.024269,1.608178,-77.141821,0.000000,1.000000,-1978.452936,736.066635,1532832.365394,318092.023711,115718.023711,8.263310,0,False,False,DEPARTURE,10028190.072020
895.000000,40.139126,116.656227,1106.893728,0.000000,0.000000,0.000000,0.000000,44.337854,15.000000,-0.024269,1.608178,-77.141821,0.000000,1.000000,-1978.452936,736.066635,1532832.365394,318028.155696,115654.155696,8.263310,0,False,False,DEPARTURE,10028190.072020
900.000000,40.139126,116.656227,1106.893728,0.000000,0.000000,0.000000,0.000000,44.337854,15.000000,-0.024269,1.608178,-77.141821,0.000000,1.000000,-1978.452936,736.066635,1532832.365394,317964.287681,115590.287681,8.263310,0,False,False,DEPARTURE,10028190.072020
905.000000,40.139126,116.656227,1106.893728,0.000000,0.000000,0.000000,0.000000,44.337854,15.000000,-0.024269,1.608178,-77.141821,0.000000,1.000000,-1978.452936,736.066635,1532832.365394,317900.419665,115526.419665,8.263310,0,False,False,DEPARTURE,10028190.072020
910.000000,40.139126,116.656227,1106.893728,0.000000,0.000000,0.000000,0.000000,44.337854,15.000000,-0.024269,1.608178,-77.141821,0.000000,1.000000,-1978.452936,736.066635,1532832.365394,317836.551650,115462.551650,8.263310,0,False,False,DEPARTURE,10028190.072020
915.000000,40.139126,116.656227,1106.893728,0.000000,0.000000,0.000000,0.000000,44.337854,15.000000,-0.024269,1.608178,-77.141821,0.000000,1.000000,-1978.452936,736.066635,1532832.365394,317772.683635,115398.683635,8.263310,0,False,False,DEPARTURE,10028190.072020
920.000000,40.139126,116.656227,1106.893728,0.000000,0.000000,0.000000,0.000000,44.337854,15.000000,-0.024269,1.608178,-77.141821,0.000000,1.000000,-1978.452936,736.066635,1532832.365394,317708.815620,115334.815620,8.263310,0,False,False,DEPARTURE,10028190.072020
925.000000,40.139126,116.656227,1106.893728,0.000000,0.000000,0.000000,0.000000,44.337854,15.000000,-0.024269,1.608178,-77.141821,0.000000,1.000000,-1978.452936,736.066635,1532832.365394,317644.947604,115270.947604,8.263310,0,False,False,DEPARTURE,10028190.072020
930.000000,40.139126,116.656227,1106.893728,0.000000,0.000000,0.000000,0.000000,44.337854,15.000000,-0.024269,1.608178,-77.141821,0.000000,1.000000,-1978.452936,736.066635,1532832.365394,317581.079589,115207.079589,8.263310,0,False,False,DEPARTURE,10028190.072020
935.000000,40.139126,116.656227,1106.893728,0.000000,0.000000,0.000000,0.000000,44.337854,15.000000,-0.024269,1.608178,-77.141821,0.000000,1.000000,-1978.452936,736.066635,1532832.365394,317517.211574,115143.211574,8.263310,0,False,False,DEPARTURE,10028190.072020
940.000000,40.139126,116.656227,1106.893728,0.000000,0.000000,0.000000,0.000000,44.337854,15.000000,-0.024269,1.608178,-77.141821,0.000000,1.000000,-1978.452936,736.066635,1532832.365394,317453.343559,115079.343559,8.263310,0,False,False,DEPARTURE,10028190.072020
945.000000,40.139126,116.656227,1106.893728,0.000000,0.000000,0.000000,0.000000,44.337854,15.000000,-0.024269,1.608178,-77.141821,0.000000,1.000000,-1978.452936,736.066635,1532832.365394,317389.475544,115015.475544,8.263310,0,False,False,DEPARTURE,10028190.072020
950.000000,40.139126,116.656227,1106.893728,0.000000,0.000000,0.000000,0.000000,44.337854,15.000000,-0.024269,1.608178,-77.141821,0.000000,1.000000,-1978.452936,736.066635,1532832.365394,317325.607528,114951.607528,8.263310,0,False,False,DEPARTURE,10028190.072020
955.000000,40.139126,116.656227,1106.893728,0.000000,0.000000,0.000000,0.000000,44.337854,15.000000,-0.024269,1.608178,-77.141821,0.000000,1.000000,-1978.452936,736.066635,1532832.365394,317261.739513,114887.739513,8.263310,0,False,False,DEPARTURE,10028190.072020
960.000000,40.139126,116.656227,1106.893728,0.000000,0.000000,0.000000,0.000000,44.337854,15.000000,-0.024269,1.608178,-77.141821,0.000000,1.000000,-1978.452936,736.066635,1532832.365394,317197.871498,114823.871498,8.263310,0,False,False,DEPARTURE,10028190.072020
965.000000,40.139126,116.656227,1106.893728,0.000000,0.000000,0.000000,0.000000,44.337854,15.000000,-0.024269,1.608178,-77.141821,0.000000,1.000000,-1978.452936,736.066635,1532832.365394,317134.003483,114760.003483,8.263310,0,False,False,DEPARTURE,10028190.072020
970.000000,40.139126,116.656227,1106.893728,0.000000,0.000000,0.000000,0.000000,44.337854,15.000000,-0.024269,1.608178,-77.141821,0.000000,1.000000,-1978.452936,736.066635,1532832.365394,317070.135467,114696.135467,8.263310,0,False,False,DEPARTURE,10028190.072020
975.000000,40.139126,116.656227,1106.893728,0.000000,0.000000,0.000000,0.000000,44.337854,15.000000,-0.024269,1.608178,-77.141821,0.000000,1.000000,-1978.452936,736.066635,1532832.365394,317006.267452,114632.267452,8.263310,0,False,False,DEPARTURE,10028190.072020
980.000000,40.139126,116.656227,1106.893728,0.000000,0.000000,0.000000,0.000000,44.337854,15.000000,-0.024269,1.608178,-77.141821,0.000000,1.000000,-1978.452936,736.066635,1532832.365394,316942.399437,114568.399437,8.263310,0,False,False,DEPARTURE,10028190.072020
985.000000,40.139126,116.656227,1106.893728,0.000000,0.000000,0.000000,0.000000,44.337854,15.000000,-0.024269,1.608178,-77.141821,0.000000,1.000000,-1978.452936,736.066635,1532832.365394,316878.531422,114504.531422,8.263310,0,False,False,DEPARTURE,10028190.072020
990.000000,40.139126,116.656227,1106.893728,0.000000,0.000000,0.000000,0.000000,44.337854,15.000000,-0.024269,1.608178,-77.141821,0.000000,1.000000,-1978.452936,736.066635,1532832.365394,316814.663407,114440.663407,8.263310,0,False,False,DEPARTURE,10028190.072020
995.000000,40.139126,116.656227,1106.893728,0.000000,0.000000,0.000000,0.000000,44.337854,15.000000,-0.024269,1.608178,-77.141821,0.000000,1.000000,-1978.452936,736.066635,1532832.365394,316750.795391,114376.795391,8.263310,0,False,False,DEPARTURE,10028190.072020
1000.000000,40.139126,116.656227,1106.893728,0.000000,0.000000,0.000000,0.000000,44.337854,15.000000,-0.024269,1.608178,-77.141821,0.000000,1.000000,-1978.452936,736.066635,1532832.365394,316686.927376,114312.927376,8.263310,0,False,False,DEPARTURE,10028190.072020
1005.000000,40.139126,116.656227,1106.893728,0.000000,0.000000,0.000000,0.000000,44.337854,15.000000,-0.024269,1.608178,-77.141821,0.000000,1.000000,-1978.452936,736.066635,1532832.365394,316623.059361,114249.059361,8.263310,0,False,False,DEPARTURE,10028190.072020
1010.000000,40.139126,116.656227,1106.893728,0.000000,0.000000,0.000000,0.000000,44.337854,15.000000,-0.024269,1.608178,-77.141821,0.000000,1.000000,-1978.452936,736.066635,1532832.365394,316559.191346,114185.191346,8.263310,0,False,False,DEPARTURE,10028190.072020
1015.000000,40.139126,116.656227,1106.893728,0.000000,0.000000,0.000000,0.000000,44.337854,15.000000,-0.024269,1.608178,-77.141821,0.000000,1.000000,-1978.452936,736.066635,1532832.365394,316495.323330,114121.323330,8.263310,0,False,False,DEPARTURE,10028190.072020
1020.000000,40.139126,116.656227,1106.893728,0.000000,0.000000,0.000000,0.000000,44.337854,15.000000,-0.024269,1.608178,-77.141821,0.000000,1.000000,-1978.452936,736.066635,1532832.365394,316431.455315,114057.455315,8.263310,0,False,False,DEPARTURE,10028190.072020
1025.000000,40.139126,116.656227,1106.893728,0.000000,0.000000,0.000000,0.000000,44.337854,15.000000,-0.024269,1.608178,-77.141821,0.000000,1.000000,-1978.452936,736.066635,1532832.365394,316367.587300,113993.587300,8.263310,0,False,False,DEPARTURE,10028190.072020
1030.000000,40.139126,116.656227,1106.893728,0.000000,0.000000,0.000000,0.000000,44.337854,15.000000,-0.024269,1.608178,-77.141821,0.000000,1.000000,-1978.452936,736.066635,1532832.365394,316303.719285,113929.719285,8.263310,0,False,False,DEPARTURE,10028190.072020
1035.000000,40.139126,116.656227,1106.893728,0.000000,0.000000,0.000000,0.000000,44.337854,15.000000,-0.024269,1.608178,-77.141821,0.000000,1.000000,-1978.452936,736.066635,1532832.365394,316239.851270,113865.851270,8.263310,0,False,False,DEPARTURE,10028190.072020
1040.000000,40.139126,116.656227,1106.893728,0.000000,0.000000,0.000000,0.000000,44.337854,15.000000,-0.024269,1.608178,-77.141821,0.000000,1.000000,-1978.452936,736.066635,1532832.365394,316175.983254,113801.983254,8.263310,0,False,False,DEPARTURE,10028190.072020
1045.000000,40.139126,116.656227,1106.893728,0.000000,0.000000,0.000000,0.000000,44.337854,15.000000,-0.024269,1.608178,-77.141821,0.000000,1.000000,-1978.452936,736.066635,1532832.365394,316112.115239,113738.115239,8.263310,0,False,False,DEPARTURE,10028190.072020
1050.000000,40.139126,116.656227,1106.893728,0.000000,0.000000,0.000000,0.000000,44.337854,15.000000,-0.024269,1.608178,-77.141821,0.000000,1.000000,-1978.452936,736.066635,1532832.365394,316048.247224,113674.247224,8.263310,0,False,False,DEPARTURE,10028190.072020
1055.000000,40.139126,116.656227,1106.893728,0.000000,0.000000,0.000000,0.000000,44.337854,15.000000,-0.024269,1.608178,-77.141821,0.000000,1.000000,-1978.452936,736.066635,1532832.365394,315984.379209,113610.379209,8.263310,0,False,False,DEPARTURE,10028190.072020
1060.000000,40.139126,116.656227,1106.893728,0.000000,0.000000,0.000000,0.000000,44.337854,15.000000,-0.024269,1.608178,-77.141821,0.000000,1.000000,-1978.452936,736.066635,1532832.365394,315920.511193,113546.511193,8.263310,0,False,False,DEPARTURE,10028190.072020
1065.000000,40.139126,116.656227,1106.893728,0.000000,0.000000,0.000000,0.000000,44.337854,15.000000,-0.024269,1.608178,-77.141821,0.000000,1.000000,-1978.452936,736.066635,1532832.365394,315856.643178,113482.643178,8.263310,0,False,False,DEPARTURE,10028190.072020
1070.000000,40.139126,116.656227,1106.893728,0.000000,0.000000,0.000000,0.000000,44.337854,15.000000,-0.024269,1.608178,-77.141821,0.000000,1.000000,-1978.452936,736.066635,1532832.365394,315792.775163,113418.775163,8.263310,0,False,False,DEPARTURE,10028190.072020
1075.000000,40.139126,116.656227,1106.893728,0.000000,0.000000,0.000000,0.000000,44.337854,15.000000,-0.024269,1.608178,-77.141821,0.000000,1.000000,-1978.452936,736.066635,1532832.365394,315728.907148,113354.907148,8.263310,0,False,False,DEPARTURE,10028190.072020
1080.000000,40.139126,116.656227,1106.893728,0.000000,0.000000,0.000000,0.000000,44.337854,15.000000,-0.024269,1.608178,-77.141821,0.000000,1.000000,-1978.452936,736.066635,1532832.365394,315665.039133,113291.039133,8.263310,0,False,False,DEPARTURE,10028190.072020
1085.000000,40.139126,116.656227,1106.893728,0.000000,0.000000,0.000000,0.000000,44.337854,15.000000,-0.024269,1.608178,-77.141821,0.000000,1.000000,-1978.452936,736.066635,1532832.365394,315601.171117,113227.171117,8.263310,0,False,False,DEPARTURE,10028190.072020
1090.000000,40.139126,116.656227,1106.893728,0.000000,0.000000,0.000000,0.000000,44.337854,15.000000,-0.024269,1.608178,-77.141821,0.000000,1.000000,-1978.452936,736.066635,1532832.365394,315537.303102,113163.303102,8.263310,0,False,False,DEPARTURE,10028190.072020
1095.000000,40.139126,116.656227,1106.893728,0.000000,0.000000,0.000000,0.000000,44.337854,15.000000,-0.024269,1.608178,-77.141821,0.000000,1.000000,-1978.452936,736.066635,1532832.365394,315473.435087,113099.435087,8.263310,0,False,False,DEPARTURE,10028190.072020
1100.000000,40.139126,116.656227,1106.893728,0.000000,0.000000,0.000000,0.000000,44.337854,15.000000,-0.024269,1.608178,-77.141821,0.000000,1.000000,-1978.452936,736.066635,1532832.365394,315409.567072,113035.567072,8.263310,0,False,False,DEPARTURE,10028190.072020
1105.000000,40.139126,116.656227,1106.893728,0.000000,0.000000,0.000000,0.000000,44.337854,15.000000,-0.024269,1.608178,-77.141821,0.000000,1.000000,-1978.452936,736.066635,1532832.365394,315345.699056,112971.699056,8.263310,0,False,False,DEPARTURE,10028190.072020
1110.000000,40.139126,116.656227,1106.893728,0.000000,0.000000,0.000000,0.000000,44.337854,15.000000,-0.024269,1.608178,-77.141821,0.000000,1.000000,-1978.452936,736.066635,1532832.365394,315281.831041,112907.831041,8.263310,0,False,False,DEPARTURE,10028190.072020
1115.000000,40.139126,116.656227,1106.893728,0.000000,0.000000,0.000000,0.000000,44.337854,15.000000,-0.024269,1.608178,-77.141821,0.000000,1.000000,-1978.452936,736.066635,1532832.365394,315217.963026,112843.963026,8.263310,0,False,False,DEPARTURE,10028190.072020
1120.000000,40.139126,116.656227,1106.893728,0.000000,0.000000,0.000000,0.000000,44.337854,15.000000,-0.024269,1.608178,-77.141821,0.000000,1.000000,-1978.452936,736.066635,1532832.365394,315154.095011,112780.095011,8.263310,0,False,False,DEPARTURE,10028190.072020
1125.000000,40.139126,116.656227,1106.893728,0.000000,0.000000,0.000000,0.000000,44.337854,15.000000,-0.024269,1.608178,-77.141821,0.000000,1.000000,-1978.452936,736.066635,1532832.365394,315090.226996,112716.226996,8.263310,0,False,False,DEPARTURE,10028190.072020
