time,lat,lon,alt,tas,ias,gs,mach,heading,pitch,roll,gamma,alpha,v_vertical,throttle,lift,drag,thrust,mass,fuel,load_factor,flaps,gear,spoilers,flight_phase,dist_to_dest
0.000000,40.079898,116.603102,10.000000,0.511443,0.000000,0.511443,0.000000,145.171477,0.000000,0.000000,0.000000,0.000000,0.000000,0.300000,0.000000,3.038328,71959.740689,70346.700168,16946.700168,1.000000,0,True,False,TAXI,1098838.934845
0.500000,40.079894,116.603105,10.000000,1.022774,0.511198,1.022774,0.001503,145.171477,0.000000,0.000000,0.000000,0.000000,0.000000,0.300000,0.000000,3.038328,71943.516042,70346.400403,16946.400403,1.000000,0,True,False,TAXI,1098838.428347
1.000000,40.079889,116.603110,10.000000,1.533990,1.022283,1.533990,0.003006,145.171477,0.000000,0.000000,0.000000,0.000000,0.000000,0.300000,0.000000,3.178290,71927.294985,70346.100706,16946.100706,1.000000,0,True,False,TAXI,1098837.668684
1.500000,40.079881,116.603117,10.000000,2.045064,1.533253,2.045064,0.004508,145.171477,0.000000,0.000000,0.000000,0.000000,0.000000,0.300000,0.000000,7.149562,71911.077547,70345.801077,16945.801077,1.000000,0,True,False,TAXI,1098836.655927
2.000000,40.079872,116.603126,10.000000,2.555987,2.044083,2.555987,0.006010,145.171477,0.000000,0.000000,0.000000,0.000000,0.000000,0.300000,0.000000,12.707162,71894.864592,70345.501515,16945.501515,1.000000,0,True,False,TAXI,1098835.390151
2.500000,40.079860,116.603136,10.000000,3.066745,2.554760,3.066745,0.007512,145.171477,0.000000,0.000000,0.000000,0.000000,0.000000,0.300000,0.000000,19.849599,71878.656477,70345.202020,16945.202020,1.000000,0,True,False,TAXI,1098833.871437
3.000000,40.079847,116.603148,10.000000,3.577328,3.065273,3.577328,0.009013,145.171477,0.000000,0.000000,0.000000,0.000000,0.000000,0.300000,0.000000,28.575243,71862.453558,70344.902593,16944.902593,1.000000,0,True,False,TAXI,1098832.099872
3.500000,40.079832,116.603162,10.000000,4.087726,3.575611,4.087726,0.010514,145.171477,0.000000,0.000000,0.000000,0.000000,0.000000,0.300000,0.000000,38.882324,71846.256191,70344.603234,16944.603234,1.000000,0,True,False,TAXI,1098830.075549
4.000000,40.079815,116.603177,10.000000,4.597925,4.085764,4.597925,0.012014,145.171477,0.000000,0.000000,0.000000,0.000000,0.000000,0.300000,0.000000,50.768936,71830.064732,70344.303942,16944.303942,1.000000,0,True,False,TAXI,1098827.798564
4.500000,40.079796,116.603194,10.000000,5.107917,4.595718,5.107917,0.013513,145.171477,0.000000,0.000000,0.000000,0.000000,0.000000,0.300000,0.000000,64.233032,71813.879534,70344.004717,16944.004717,1.000000,0,True,False,TAXI,1098825.269022
5.000000,40.079771,116.603217,10.000000,6.808053,5.105465,6.808053,0.015012,145.171477,0.000000,0.000000,0.000000,0.000000,0.000000,1.000000,782.937595,140.302417,239325.669847,70343.007527,16943.007527,1.000000,1,True,False,TAKEOFF_ROLL,1098821.897538
5.500000,40.079740,116.603246,10.000000,8.506160,6.804785,8.506160,0.020009,145.171477,0.000000,0.000000,0.000000,0.000000,0.000000,1.000000,1390.866244,249.243231,239145.890352,70342.011086,16942.011086,1.000000,1,True,False,TAKEOFF_ROLL,1098817.685118
6.000000,40.079702,116.603280,10.000000,10.202022,8.502078,10.202022,0.024999,145.171477,0.000000,0.000000,0.000000,0.000000,0.000000,1.000000,2171.234374,389.085200,238966.325324,70341.015393,16941.015393,1.000000,1,True,False,TAKEOFF_ROLL,1098812.632875
6.500000,40.079658,116.603320,10.000000,11.895420,10.197125,11.895420,0.029984,145.171477,0.000000,0.000000,0.000000,0.000000,0.000000,1.000000,3123.288281,559.693260,238786.997839,70340.020447,16940.020447,1.000000,1,True,False,TAKEOFF_ROLL,1098806.742028
7.000000,40.079608,116.603366,10.000000,13.586139,11.889711,13.586139,0.034960,145.171477,0.000000,0.000000,0.000000,0.000000,0.000000,1.000000,4246.187074,760.916724,238607.930851,70339.026247,16939.026247,1.000000,1,True,False,TAKEOFF_ROLL,1098800.013905
7.500000,40.079552,116.603417,10.000000,15.273964,13.579618,15.273964,0.039929,145.171477,0.000000,0.000000,0.000000,0.000000,0.000000,1.000000,5539.003639,992.589452,238429.147187,70338.032793,16938.032793,1.000000,1,True,False,TAKEOFF_ROLL,1098792.449940
8.000000,40.079489,116.603474,10.000000,16.958681,15.266633,16.958681,0.044890,145.171477,0.000000,0.000000,0.000000,0.000000,0.000000,1.000000,7000.725697,1254.530045,238250.669532,70337.040082,16937.040082,1.000000,1,True,False,TAKEOFF_ROLL,1098784.051672
8.500000,40.079420,116.603536,10.000000,18.640081,16.950542,18.640081,0.049841,145.171477,0.000000,0.000000,0.000000,0.000000,0.000000,1.000000,8630.256948,1546.542045,238072.520418,70336.048113,16936.048113,1.000000,1,True,False,TAKEOFF_ROLL,1098774.820744
9.000000,40.079347,116.603603,7.607254,20.317952,18.631134,19.746347,0.054783,145.171477,0.000000,0.000000,-0.237764,0.000000,-4.785492,1.000000,10426.418302,1868.414160,237894.722216,70335.056885,16935.056885,0.015111,1,True,False,TAKEOFF_ROLL,1098765.041975
9.500000,40.079270,116.603673,2.827968,23.112989,20.310533,21.043858,0.059712,145.171477,0.000000,0.000000,-0.426359,13.622882,-9.558572,1.000000,57395.109369,7087.010826,237749.173571,70334.066263,16934.066263,0.083184,1,True,False,TAKEOFF_ROLL,1098754.620656
10.000000,40.079187,116.603748,0.000000,28.397498,23.109852,22.323729,0.067923,145.171477,0.000000,0.000000,0.000000,24.428569,0.000000,1.000000,23461.012136,3225.460053,237517.197841,70333.076608,16933.076608,0.034003,1,True,False,TAKEOFF_ROLL,1098743.565524
10.500000,40.079078,116.603848,0.000000,31.638207,28.397498,29.679559,0.083450,145.171477,0.000000,0.000000,0.000000,0.000000,0.000000,1.000000,24222.373508,4340.649333,236995.788762,70332.089126,16932.089126,0.035107,1,True,False,TAKEOFF_ROLL,1098728.867653
11.000000,40.078956,116.603958,0.000000,34.866644,31.638207,32.952247,0.092974,145.171477,0.000000,0.000000,0.000000,0.000000,0.000000,1.000000,30066.320968,5387.884718,236652.949517,70331.103072,16931.103072,0.043578,1,True,False,TAKEOFF_ROLL,1098712.549093
11.500000,40.078822,116.604080,0.000000,38.082055,34.866644,36.204927,0.102461,145.171477,0.000000,0.000000,0.000000,0.000000,0.000000,1.000000,36515.466545,6543.571605,236311.408637,70330.118441,16930.118441,0.052926,1,True,False,TAKEOFF_ROLL,1098694.619755
12.000000,40.078677,116.604212,0.000000,41.283700,38.082055,39.438548,0.111910,145.171477,0.000000,0.000000,0.000000,0.000000,0.000000,1.000000,43560.946833,7806.121672,235971.245779,70329.135227,16929.135227,0.063138,1,True,False,TAKEOFF_ROLL,1098675.089080
12.500000,40.078519,116.604355,0.000000,44.470850,41.283700,42.653565,0.121318,145.171477,0.000000,0.000000,0.000000,0.000000,0.000000,1.000000,51193.376822,9173.853126,235632.539289,70328.153425,16928.153425,0.074202,1,True,False,TAKEOFF_ROLL,1098653.966284
13.000000,40.078350,116.604509,0.000000,47.642793,44.470850,45.850109,0.130684,145.171477,0.000000,0.000000,0.000000,0.000000,0.000000,1.000000,59402.869546,10644.994223,235295.366134,70327.173028,16927.173028,0.086102,1,True,False,TAKEOFF_ROLL,1098631.260517
13.500000,40.078169,116.604674,0.000000,50.798829,47.642793,49.028104,0.140006,145.171477,0.000000,0.000000,0.000000,0.000000,0.000000,1.000000,68179.056580,12217.686939,234959.801836,70326.194029,16926.194029,0.098825,1,True,False,TAKEOFF_ROLL,1098606.980968
14.000000,40.077977,116.604849,0.000000,53.938272,50.798829,52.187334,0.149280,145.171477,0.000000,0.000000,0.000000,0.000000,0.000000,1.000000,77511.109290,13889.990785,234625.920408,70325.216421,16925.216421,0.112353,1,True,False,TAKEOFF_ROLL,1098581.136934
14.500000,40.077772,116.605035,0.000000,57.060453,53.938272,55.327488,0.158506,145.171477,0.000000,0.000000,0.000000,0.000000,0.000000,1.000000,87387.760787,15659.886733,234293.794294,70324.240196,16924.240196,0.126671,1,True,False,TAKEOFF_ROLL,1098553.737865
15.000000,40.077557,116.605231,0.000000,60.164720,57.060453,58.448192,0.167681,145.171477,0.000000,0.000000,0.000000,0.000000,0.000000,1.000000,97797.328501,17525.281267,233963.494317,70323.265349,16923.265349,0.141762,1,True,False,TAKEOFF_ROLL,1098524.793396
15.500000,40.077329,116.605437,0.000000,63.250434,60.164720,61.549029,0.176803,145.171477,0.000000,0.000000,0.000000,0.000000,0.000000,1.000000,108727.737299,19484.010524,233635.089618,70322.291869,16922.291869,0.157608,1,True,False,TAKEOFF_ROLL,1098494.313370
16.000000,40.077091,116.605654,0.000000,66.316974,63.250434,64.629555,0.185871,145.171477,0.000000,0.000000,0.000000,0.000000,0.000000,1.000000,120166.543081,21533.844520,233308.647610,70321.319750,16921.319750,0.174192,1,True,False,TAKEOFF_ROLL,1098462.307849
16.500000,40.076841,116.605881,0.000000,69.363739,66.316974,67.689309,0.194882,145.171477,0.000000,0.000000,0.000000,0.000000,0.000000,1.000000,132100.956775,23672.491454,232984.233931,70320.348982,16920.348982,0.191494,1,True,False,TAKEOFF_ROLL,1098428.787123
17.000000,40.076580,116.606119,0.000000,72.390142,69.363739,70.727822,0.203836,145.171477,0.000000,0.000000,0.000000,0.000000,0.000000,1.000000,144517.868655,25897.602063,232661.912397,70319.379557,16919.379557,0.209497,1,True,False,TAKEOFF_ROLL,1098393.761717
17.500000,40.076308,116.606366,0.000000,75.395616,72.390142,73.744622,0.212729,145.171477,0.000000,0.000000,0.000000,0.000000,0.000000,1.000000,157403.872914,28206.774026,232341.744966,70318.411467,16918.411467,0.228180,1,True,False,TAKEOFF_ROLL,1098357.242386
18.000000,40.076025,116.606624,0.000000,78.379610,75.395616,76.739239,0.221561,145.171477,0.000000,0.000000,0.000000,0.000000,0.000000,1.000000,170745.292404,30597.556399,232023.791695,70317.444701,16917.444701,0.247524,1,True,False,TAKEOFF_ROLL,1098319.240122
18.500000,40.075730,116.606891,0.000000,81.315989,78.379610,79.708490,0.230330,145.171477,1.600000,0.000000,0.000000,1.600000,0.000000,1.000000,262030.048968,36668.499815,231708.110711,70316.479250,16916.479250,0.379861,1,True,False,ROTATION,1098279.767489
19.000000,40.075425,116.607169,0.000000,84.190961,81.315989,82.611459,0.238959,145.171477,3.200000,0.000000,0.000000,3.200000,0.000000,1.000000,365448.576187,44688.704359,231397.467071,70315.515094,16915.515094,0.529793,1,True,False,ROTATION,1098238.857318
19.500000,40.075110,116.607455,0.000000,86.988726,84.190961,85.430666,0.247408,145.171477,4.800000,0.000000,0.000000,4.800000,0.000000,1.000000,481167.106908,54943.731026,231093.319698,70314.552206,16914.552206,0.697560,1,True,False,ROTATION,1098196.551092
20.000000,40.074785,116.607751,0.000000,89.691537,86.988726,88.146572,0.255629,145.171477,6.400000,0.000000,0.000000,6.400000,0.000000,1.000000,609140.244484,67710.502180,230797.340196,70313.590550,16913.590550,0.883098,1,True,False,ROTATION,1098152.899972
20.500000,40.074450,116.608056,0.210847,90.738755,89.691537,90.737775,0.263572,145.171477,8.000000,0.000000,0.004647,8.000000,0.421694,1.000000,749067.892423,83246.089598,230511.406046,70312.630086,16912.630086,1.085973,1,True,False,ROTATION,1098107.965718
21.000000,40.074111,116.608363,1.005085,91.671061,90.737837,91.657297,0.266650,145.171477,9.600000,0.000000,0.017329,9.333726,1.588477,1.000000,853228.737514,96088.406625,230397.879756,70311.670095,16911.670095,1.236998,1,True,False,ROTATION,1098062.576166
21.500000,40.073770,116.608673,2.655760,92.470017,91.666638,92.411066,0.269392,145.171477,11.200000,0.000000,0.035709,10.207128,3.301349,1.000000,928651.497961,105986.640820,230288.934577,70310.710557,16910.710557,1.346363,1,True,False,ROTATION,1098016.813399
22.000000,40.073427,116.608986,5.165956,93.182022,92.458229,93.046681,0.271745,145.171477,12.000000,0.000000,0.053903,9.954001,5.020393,1.000000,927698.119026,105436.239713,230182.982583,70309.751462,16909.751462,1.344999,1,True,False,ROTATION,1097970.735930
22.500000,40.073081,116.609300,8.339496,93.860426,93.158916,93.645578,0.273845,145.171477,12.000000,0.000000,0.067674,8.911564,6.347079,1.000000,870480.372108,97518.805336,230075.084683,70308.792815,16908.792815,1.262061,1,True,False,ROTATION,1097924.361943
23.000000,40.072734,116.609616,12.031554,94.509089,93.822856,94.220182,0.275849,145.171477,12.000000,0.000000,0.078211,8.122556,7.384115,1.000000,828169.625963,92109.408525,229962.152911,70307.834640,16907.834640,1.200733,1,True,False,ROTATION,1097877.703468
23.500000,40.072384,116.609934,16.135239,95.131948,94.454514,94.777247,0.277767,145.171477,12.000000,0.000000,0.086381,7.518841,8.207370,1.000000,796890.245328,88375.175441,229845.665226,70306.876949,16906.876949,1.155398,1,True,False,ROTATION,1097830.769194
24.000000,40.072035,116.610254,20.949197,95.216519,95.058280,94.728500,0.279610,144.989203,13.600000,-2.750000,0.101289,8.650738,9.627916,0.742501,887754.567394,99177.396780,170572.301868,70306.166232,16906.166232,1.285672,1,True,False,INITIAL_CLIMB,1097783.880175
24.500000,40.071686,116.610573,26.461421,95.230438,95.120793,94.590157,0.279874,144.989203,14.378127,0.000000,0.116026,8.574687,11.024450,0.741656,883497.081266,98628.523835,170325.102831,70305.456544,16905.456544,1.280994,1,True,False,INITIAL_CLIMB,1097737.059697
25.000000,40.071339,116.610891,32.585952,95.193180,95.109515,94.401812,0.279933,145.007225,14.884324,0.280767,0.129034,8.236513,12.249061,0.741516,859167.796533,95635.304620,170239.065242,70304.747214,16904.747214,1.245716,1,True,False,INITIAL_CLIMB,1097690.330416
25.500000,40.070992,116.611208,39.161798,95.131460,95.044339,94.217979,0.279842,145.022672,15.000000,0.254098,0.138692,7.606920,13.151692,0.741889,813147.276784,90201.505122,170268.640135,70304.037762,16904.037762,1.179005,1,True,False,INITIAL_CLIMB,1097643.690407
26.000000,40.070645,116.611525,46.046371,95.056040,94.952714,94.053503,0.279682,145.036035,15.000000,0.231286,0.145364,7.053547,13.769146,0.742506,772241.685853,85610.398282,170351.869306,70303.327962,16903.327962,1.119708,1,True,False,INITIAL_CLIMB,1097597.130337
26.500000,40.070299,116.611841,53.139322,94.971142,94.846056,93.905687,0.279482,145.047815,15.000000,0.211593,0.149932,6.671237,14.185902,0.743260,743390.903321,82501.136742,170464.535199,70302.617693,16902.617693,1.077888,1,True,False,INITIAL_CLIMB,1097550.642149
27.000000,40.069953,116.612156,60.370011,94.880222,94.729050,93.771665,0.279254,145.058344,15.000000,0.194272,0.153014,6.409543,14.461378,0.744109,723041.885315,80365.988161,170597.557743,70301.906870,16901.906870,1.048395,1,True,False,INITIAL_CLIMB,1097504.219163
27.500000,40.069608,116.612472,67.688729,94.785944,94.605478,93.648922,0.279010,145.067853,15.000000,0.178823,0.155047,6.232967,14.637436,0.745019,708695.832340,78883.968303,170743.396572,70301.195439,16901.195439,1.027605,1,True,False,INITIAL_CLIMB,1097457.855916
28.000000,40.069263,116.612786,75.060537,94.690281,94.478226,93.535421,0.278756,145.076506,15.000000,0.164900,0.156340,6.116479,14.743616,0.745961,698592.178379,77846.800581,170896.204673,70300.483372,16900.483372,1.012965,1,True,False,INITIAL_CLIMB,1097411.547934
28.500000,40.068919,116.613100,82.460929,94.594660,94.349427,93.429580,0.278497,145.084422,15.000000,0.152258,0.157111,6.042396,14.800784,0.746918,691488.974667,77116.376728,171051.631253,70299.770657,16899.770657,1.002676,1,True,False,INITIAL_CLIMB,1097365.291511
29.000000,40.068574,116.613414,89.872774,94.500087,94.220613,93.330192,0.278240,145.091693,15.000000,0.140718,0.157515,5.998210,14.823690,0.747874,686509.253592,76599.494841,171206.531786,70299.057296,16899.057296,0.995466,1,True,False,INITIAL_CLIMB,1097319.083529
29.500000,40.068231,116.613728,97.284159,94.407258,94.092866,93.236344,0.277985,145.098390,15.000000,0.130144,0.157661,5.975065,14.822771,0.748820,683033.206425,76232.378186,171358.688354,70298.343301,16898.343301,0.990436,1,True,False,INITIAL_CLIMB,1097272.921312
30.000000,40.067887,116.614041,104.686865,94.316638,93.966930,93.147345,0.277735,145.104571,15.000000,0.120427,0.157628,5.966681,14.805412,0.749748,680622.385520,75970.910445,171506.574666,70297.628691,16897.628691,0.986951,1,True,False,INITIAL_CLIMB,1097226.802519
30.500000,40.067544,116.614354,112.075286,94.228529,93.843304,93.062671,0.277491,145.110285,15.000000,0.111482,0.157469,5.968607,14.776843,0.750654,678966.361826,75784.318515,171649.171198,70296.913486,16896.913486,0.984560,1,True,False,INITIAL_CLIMB,1097180.725064
31.000000,40.067201,116.614666,119.445667,94.143115,93.722310,92.981913,0.277255,145.115572,15.000000,0.103237,0.157225,5.977681,14.740762,0.751536,677845.152476,75650.997216,171785.824999,70296.197712,16896.197712,0.982944,1,True,False,INITIAL_CLIMB,1097134.687057
31.500000,40.066858,116.614978,126.795561,94.060495,93.604145,92.904752,0.277027,145.120468,15.000000,0.095629,0.156923,5.991660,14.699787,0.752390,677102.734108,75555.700908,171916.145692,70295.481394,16895.481394,0.981878,1,True,False,INITIAL_CLIMB,1097088.686763
32.000000,40.066516,116.615290,134.123444,93.980708,93.488915,92.830932,0.276807,145.125006,15.000000,0.088605,0.156583,6.008952,14.655766,0.753216,676628.355009,75487.627992,172039.929409,70294.764561,16894.764561,0.981200,1,True,False,INITIAL_CLIMB,1097042.722568
32.500000,40.066173,116.615602,141.428445,93.903754,93.376665,92.760244,0.276595,145.129213,15.000000,0.082118,0.156219,6.028427,14.610002,0.754014,676343.337940,75439.100076,172157.103668,70294.047240,16894.047240,0.980797,1,True,False,INITIAL_CLIMB,1096996.792960
33.000000,40.065832,116.615913,148.710149,93.829602,93.267392,92.692509,0.276392,145.133115,15.000000,0.076125,0.155841,6.049283,14.563408,0.754783,676191.751731,75404.643467,172267.687662,70293.329458,16893.329458,0.980588,1,True,False,INITIAL_CLIMB,1096950.896512
33.500000,40.065490,116.616224,155.968461,93.758202,93.161066,92.627578,0.276196,145.136736,15.000000,0.070588,0.155456,6.070953,14.516625,0.755525,676133.811196,75380.346261,172371.763801,70292.611242,16892.611242,0.980514,1,True,False,INITIAL_CLIMB,1096905.031867
34.000000,40.065148,116.616535,163.203508,93.689493,93.057635,92.565315,0.276009,145.140097,15.000000,0.065471,0.155068,6.093037,14.470094,0.756239,676141.202885,75363.406076,172469.457358,70291.892620,16891.892620,0.980534,1,True,False,INITIAL_CLIMB,1096859.197735
34.500000,40.064807,116.616846,170.415569,93.623404,92.957033,92.505602,0.275829,145.143218,15.000000,0.060743,0.154681,6.115254,14.424120,0.756926,676193.771492,75351.810628,172560.921976,70291.173616,16891.173616,0.980621,1,True,False,INITIAL_CLIMB,1096813.392879
35.000000,40.064466,116.617156,177.605022,93.559857,92.859185,92.448331,0.275657,145.146116,15.000000,0.056374,0.154298,6.137408,14.378907,0.757587,676277.168571,75344.111447,172646.329361,70290.454256,16890.454256,0.980752,1,True,False,INITIAL_CLIMB,1096767.616116
35.500000,40.064125,116.617466,184.772317,93.498775,92.764011,92.393401,0.275492,145.148809,15.000000,0.052337,0.153920,6.159362,14.334590,0.758222,676381.182469,75339.263153,172725.861972,70289.734565,16889.734565,0.980913,1,True,False,INITIAL_CLIMB,1096721.866312
36.000000,40.063784,116.617776,191.917943,93.440077,92.671429,92.340718,0.275335,145.151313,15.000000,0.048608,0.153548,6.181024,14.291251,0.758833,676498.551001,75336.509066,172799.707875,70289.014566,16889.014566,0.981093,1,True,False,INITIAL_CLIMB,1096676.142373
36.500000,40.063443,116.618086,199.042413,93.383684,92.581353,92.290195,0.275184,145.153640,15.000000,0.045162,0.153183,6.202331,14.248940,0.759420,676624.116529,75335.299656,172868.057111,70288.294283,16888.294283,0.981285,1,True,False,INITIAL_CLIMB,1096630.443250
37.000000,40.063103,116.618396,206.146253,93.329516,92.493701,92.241750,0.275040,145.155806,15.000000,0.041978,0.152826,6.223245,14.207680,0.759984,676754.224145,75335.234294,172931.099172,70287.573736,16887.573736,0.981484,1,True,False,INITIAL_CLIMB,1096584.767933
37.500000,40.062763,116.618705,213.229992,93.277496,92.408387,92.195303,0.274903,145.157821,15.000000,0.039038,0.152475,6.243740,14.167478,0.760526,676886.292632,75336.019606,172989.021256,70286.852949,16886.852949,0.981686,1,True,False,INITIAL_CLIMB,1096539.115450
38.000000,40.062423,116.619014,220.294156,93.227548,92.325332,92.150779,0.274772,145.159697,15.000000,0.036322,0.152133,6.263803,14.128328,0.761046,677018.508324,75337.439643,173042.007078,70286.131940,16886.131940,0.981888,1,True,False,INITIAL_CLIMB,1096493.484864
38.500000,40.062083,116.619324,227.339263,93.179597,92.244454,92.108105,0.274646,145.161445,15.000000,0.033813,0.151798,6.283429,14.090214,0.761545,677149.606475,75339.334491,173090.236077,70285.410731,16885.410731,0.982088,1,True,False,INITIAL_CLIMB,1096447.875273
39.000000,40.061743,116.619633,234.365821,93.133571,92.165676,92.067214,0.274527,145.163075,15.000000,0.031496,0.151471,6.302618,14.053117,0.762025,677278.714981,75341.584912,173133.882910,70284.689340,16884.689340,0.982285,1,True,False,INITIAL_CLIMB,1096402.285807
39.500000,40.061403,116.619941,241.374327,93.089401,92.088922,92.028039,0.274413,145.164595,15.000000,0.029357,0.151151,6.321373,14.017012,0.762485,677405.242594,75344.101297,173173.117145,70283.967785,16883.967785,0.982479,1,True,False,INITIAL_CLIMB,1096356.715630
40.000000,40.061064,116.620250,248.365264,93.047018,92.014119,91.990515,0.274305,145.166013,15.000000,0.027381,0.150838,6.339703,13.981873,0.762927,677528.798882,75346.815707,173208.103094,70283.246085,16883.246085,0.982668,1,True,False,INITIAL_CLIMB,1096311.163935
40.500000,40.060724,116.620559,255.339100,93.006359,91.941196,91.954582,0.274202,145.167338,15.000000,0.025557,0.150533,6.357615,13.947672,0.763351,677649.136882,75349.676136,173238.999752,70282.524256,16882.524256,0.982853,1,True,False,INITIAL_CLIMB,1096265.629944
41.000000,40.060385,116.620867,262.296290,92.967358,91.870084,91.920181,0.274104,145.168576,15.000000,0.023873,0.150234,6.375118,13.914381,0.763757,677766.111987,75352.642352,173265.960802,70281.802314,16881.802314,0.983033,1,True,False,INITIAL_CLIMB,1096220.112909
41.500000,40.060046,116.621175,269.237275,92.929956,91.800716,91.887255,0.274010,145.169734,15.000000,0.022319,0.149942,6.392224,13.881969,0.764147,677879.652432,75355.682893,173289.134671,70281.080276,16881.080276,0.983207,1,True,False,INITIAL_CLIMB,1096174.612109
42.000000,40.059707,116.621484,276.162480,92.894094,91.733030,91.855750,0.273922,145.170818,15.000000,0.020883,0.149657,6.408944,13.850409,0.764521,677989.738110,75358.772877,173308.664620,70280.358157,16880.358157,0.983377,1,True,False,INITIAL_CLIMB,1096129.126847
42.500000,40.059368,116.621792,283.072316,92.859714,91.666963,91.825612,0.273838,145.171835,15.000000,0.019559,0.149378,6.425289,13.819672,0.764880,678096.385350,75361.892406,173324.688854,70279.635970,16879.635970,0.983542,1,True,False,INITIAL_CLIMB,1096083.656455
43.000000,40.059029,116.622100,289.967181,92.826761,91.602455,91.796792,0.273758,145.172788,15.000000,0.018336,0.149105,6.441269,13.789730,0.765224,678199.635972,75365.025400,173337.340653,70278.913732,16878.913732,0.983702,1,True,False,INITIAL_CLIMB,1096038.200287
43.500000,40.058690,116.622408,296.847458,92.795184,91.539449,91.769239,0.273682,145.173683,15.000000,0.017207,0.148838,6.456897,13.760555,0.765553,678299.549415,75368.158735,173346.748506,70278.191453,16878.191453,0.983857,1,True,False,INITIAL_CLIMB,1095992.757722
44.000000,40.058352,116.622716,303.713519,92.764930,91.477891,91.742907,0.273610,145.174524,15.000000,0.016166,0.148577,6.472184,13.732121,0.765869,678396.197078,75371.281606,173353.036253,70277.469149,16877.469149,0.984007,1,True,False,INITIAL_CLIMB,1095947.328161
44.500000,40.058013,116.623023,310.565720,92.735951,91.417726,91.717751,0.273542,145.175315,15.000000,0.015204,0.148322,6.487140,13.704402,0.766172,678489.658244,75374.385054,173356.323231,70276.746831,16876.746831,0.984153,1,True,False,INITIAL_CLIMB,1095901.911027
45.000000,40.057675,116.623331,317.404406,92.708199,91.358903,91.693728,0.273478,145.176061,15.000000,0.014317,0.148072,6.501777,13.677372,0.766461,678580.017151,75377.461612,173356.724416,70276.024511,16876.024511,0.984294,1,True,False,INITIAL_CLIMB,1095856.505766
45.500000,40.057336,116.623638,324.229909,92.681629,91.301372,91.670794,0.273418,145.176764,15.000000,0.013499,0.147827,6.516105,13.651007,0.766739,678667.360888,75380.505028,173354.350569,70275.302202,16875.302202,0.984431,1,True,False,INITIAL_CLIMB,1095811.111841
46.000000,40.056998,116.623946,331.042551,92.656197,91.245087,91.648909,0.273360,145.177428,15.000000,0.012743,0.147587,6.530133,13.625283,0.767005,678751.777881,75383.510062,173349.308376,70274.579913,16874.579913,0.984563,1,True,False,INITIAL_CLIMB,1095765.728738
46.500000,40.056660,116.624253,337.842639,92.631860,91.190000,91.628035,0.273307,145.178056,15.000000,0.012047,0.147352,6.543873,13.600178,0.767259,678833.356816,75386.472327,173341.700591,70273.857656,16873.857656,0.984692,1,True,False,INITIAL_CLIMB,1095720.355960
47.000000,40.056322,116.624561,344.630474,92.608578,91.136069,91.608133,0.273256,145.178651,15.000000,0.011404,0.147122,6.557334,13.575669,0.767502,678912.185864,75389.388156,173331.626166,70273.135441,16873.135441,0.984816,1,True,False,INITIAL_CLIMB,1095674.993030
47.500000,40.055984,116.624868,351.406341,92.586311,91.083249,91.589167,0.273208,145.179215,15.000000,0.010810,0.146896,6.570526,13.551734,0.767735,678988.352138,75392.254506,173319.180389,70272.413277,16872.413277,0.984937,1,True,False,INITIAL_CLIMB,1095629.639487
48.000000,40.055646,116.625175,358.170518,92.565022,91.031501,91.571103,0.273164,145.179751,15.000000,0.010263,0.146675,6.583457,13.528354,0.767958,679061.941303,75395.068872,173304.455007,70271.691175,16871.691175,0.985054,1,True,False,INITIAL_CLIMB,1095584.294888
48.500000,40.055308,116.625482,364.923271,92.544674,90.980785,91.553907,0.273122,145.180260,15.000000,0.009758,0.146458,6.596136,13.505507,0.768171,679133.037320,75397.829223,173287.538359,70270.969144,16870.969144,0.985167,1,True,False,INITIAL_CLIMB,1095538.958806
49.000000,40.054970,116.625789,371.664859,92.525231,90.931062,91.537546,0.273083,145.180746,15.000000,0.009292,0.146245,6.608573,13.483176,0.768374,679201.722255,75400.533943,173268.515491,70270.247192,16870.247192,0.985277,1,True,False,INITIAL_CLIMB,1095493.630830
49.500000,40.054632,116.626096,378.395529,92.506660,90.882296,91.521989,0.273046,145.181209,15.000000,0.008862,0.146036,6.620775,13.461340,0.768568,679268.076170,75403.181782,173247.468276,70269.525327,16869.525327,0.985383,1,True,False,INITIAL_CLIMB,1095448.310565
50.000000,40.054294,116.626403,385.115520,92.488929,90.834452,91.507207,0.273012,145.181651,15.000000,0.008466,0.145831,6.632751,13.439983,0.768754,679332.177044,75405.771820,173224.475527,70268.803559,16868.803559,0.985486,1,True,False,INITIAL_CLIMB,1095402.997629
50.500000,40.053956,116.626710,391.825063,92.472006,90.787496,91.493169,0.272981,145.182075,15.000000,0.008100,0.145629,6.644508,13.419086,0.768932,679394.100739,75408.303425,173199.613109,70268.081894,16868.081894,0.985586,1,True,False,INITIAL_CLIMB,1095357.691655
51.000000,40.053619,116.627017,398.524380,92.455861,90.741396,91.479849,0.272952,145.182481,15.000000,0.007763,0.145431,6.656055,13.398633,0.769101,679453.920981,75410.776225,173172.954046,70267.360340,16867.360340,0.985683,1,True,False,INITIAL_CLIMB,1095312.392291
51.500000,40.053281,116.627324,405.213684,92.440464,90.696119,91.467219,0.272925,145.182870,15.000000,0.007452,0.145237,6.667397,13.378608,0.769262,679511.709365,75413.190079,173144.568619,70266.638904,16866.638904,0.985777,1,True,False,INITIAL_CLIMB,1095267.099195
52.000000,40.052943,116.627630,411.893181,92.425788,90.651635,91.455254,0.272900,145.183245,15.000000,0.007165,0.145046,6.678544,13.358995,0.769416,679567.535369,75415.545056,173114.524473,70265.917594,16865.917594,0.985868,1,True,False,INITIAL_CLIMB,1095221.812041
52.500000,40.052606,116.627937,418.563071,92.411806,90.607916,91.443929,0.272878,145.183606,15.000000,0.006900,0.144858,6.689500,13.339780,0.769563,679621.466379,75417.841405,173082.886709,70265.196415,16865.196415,0.985957,1,True,False,INITIAL_CLIMB,1095176.530514
53.000000,40.052268,116.628244,425.223545,92.398492,90.564934,91.433220,0.272857,145.183955,15.000000,0.006656,0.144673,6.700274,13.320947,0.769703,679673.567721,75420.079542,173049.717975,70264.475374,16864.475374,0.986042,1,True,False,INITIAL_CLIMB,1095131.254308
53.500000,40.051931,116.628550,431.874786,92.385820,90.522661,91.423103,0.272839,145.184291,15.000000,0.006431,0.144491,6.710871,13.302483,0.769836,679723.902696,75422.260029,173015.078561,70263.754478,16863.754478,0.986125,1,True,False,INITIAL_CLIMB,1095085.983134
54.000000,40.051593,116.628857,438.516973,92.373768,90.481072,91.413557,0.272822,145.184617,15.000000,0.006223,0.144311,6.721298,13.284374,0.769963,679772.532625,75424.383558,172979.026481,70263.033732,16863.033732,0.986206,1,True,False,INITIAL_CLIMB,1095040.716708
54.500000,40.051256,116.629163,445.150276,92.362311,90.440141,91.404560,0.272807,145.184933,15.000000,0.006031,0.144135,6.731561,13.266607,0.770083,679819.516883,75426.450934,172941.617562,70262.313142,16862.313142,0.986284,1,True,False,INITIAL_CLIMB,1094995.454761
55.000000,40.050918,116.629470,451.774861,92.351427,90.399844,91.396092,0.272794,145.185240,15.000000,0.005854,0.143961,6.741665,13.249170,0.770198,679864.912952,75428.463064,172902.905518,70261.592713,16861.592713,0.986360,1,True,False,INITIAL_CLIMB,1094950.197031
55.500000,40.050581,116.629776,458.390887,92.341095,90.360159,91.388132,0.272782,145.185538,15.000000,0.005691,0.143790,6.751616,13.232051,0.770307,679908.776461,75430.420945,172862.942032,70260.872451,16860.872451,0.986434,1,True,False,INITIAL_CLIMB,1094904.943267
56.000000,40.050244,116.630083,464.998505,92.331295,90.321063,91.380663,0.272772,145.185828,15.000000,0.005541,0.143622,6.761420,13.215237,0.770410,679951.161233,75432.325649,172821.776832,70260.152360,16860.152360,0.986506,1,True,False,INITIAL_CLIMB,1094859.693228
56.500000,40.049906,116.630389,471.597864,92.322006,90.282535,91.373664,0.272764,145.186112,15.000000,0.005402,0.143455,6.771082,13.198719,0.770508,679992.119333,75434.178316,172779.457761,70259.432446,16859.432446,0.986575,1,True,False,INITIAL_CLIMB,1094814.446682
57.000000,40.049569,116.630696,478.189106,92.313209,90.244554,91.367120,0.272757,145.186388,15.000000,0.005275,0.143292,6.780606,13.182484,0.770601,680031.701114,75435.980142,172736.030847,70258.712713,16858.712713,0.986643,1,True,False,INITIAL_CLIMB,1094769.203403
57.500000,40.049232,116.631002,484.772368,92.304885,90.207099,91.361012,0.272751,145.186659,15.000000,0.005157,0.143130,6.789998,13.166523,0.770689,680069.955261,75437.732373,172691.540373,70257.993164,16857.993164,0.986708,1,True,False,INITIAL_CLIMB,1094723.963177
58.000000,40.048894,116.631308,491.347780,92.297018,90.170154,91.355325,0.272747,145.186923,15.000000,0.005048,0.142970,6.799263,13.150825,0.770772,680106.928837,75439.436295,172646.028939,70257.273806,16857.273806,0.986772,1,True,False,INITIAL_CLIMB,1094678.725796
58.500000,40.048557,116.631615,497.915471,92.289590,90.133697,91.350042,0.272744,145.187183,15.000000,0.004947,0.142813,6.808404,13.135381,0.770851,680142.667334,75441.093227,172599.537526,70256.554641,16856.554641,0.986834,1,True,False,INITIAL_CLIMB,1094633.491060
59.000000,40.048220,116.631921,504.475562,92.282585,90.097713,91.345149,0.272743,145.187437,15.000000,0.004855,0.142657,6.817427,13.120182,0.770925,680177.214711,75442.704516,172552.105560,70255.835674,16855.835674,0.986894,1,True,False,INITIAL_CLIMB,1094588.258777
59.500000,40.047879,116.632231,510.219688,92.990485,90.062185,92.278114,0.272743,145.187597,15.000000,0.004770,0.123859,6.826336,11.488253,1.000000,436574.586071,26288.397585,223741.764147,70254.903417,16854.903417,0.633451,0,False,False,DEPARTURE,1094542.564550
60.000000,40.047535,116.632543,515.406516,93.749040,90.727743,93.173332,0.274853,145.187785,15.000000,0.004830,0.110881,7.903420,10.373656,1.000000,512957.226418,31868.072239,223595.250163,70253.971770,16853.971770,0.744288,0,False,False,DEPARTURE,1094496.427069
60.500000,40.047188,116.632858,520.173649,94.547038,91.444802,94.065085,0.277111,145.187987,14.753436,0.004851,0.101013,8.400450,9.534265,1.000000,553868.229572,35066.616626,223450.660291,70253.040726,16853.040726,0.803660,0,False,False,DEPARTURE,1094449.848048
61.000000,40.046837,116.633177,524.596354,95.379789,92.201835,94.968747,0.279485,145.188196,14.389259,0.004853,0.092872,8.601629,8.845410,1.000000,576561.568829,36805.150416,223307.392823,70252.110278,16852.110278,0.836599,0,False,False,DEPARTURE,1094402.821593
61.500000,40.046483,116.633498,528.744531,96.239930,92.993950,95.881670,0.281961,145.188410,14.083793,0.004848,0.086312,8.762603,8.296354,1.000000,597486.902399,38400.849299,223164.968781,70251.180424,16851.180424,0.866973,0,False,False,DEPARTURE,1094355.343116
62.000000,40.046126,116.633823,532.682824,97.120825,93.813668,96.800899,0.284517,145.188629,13.832293,0.004838,0.081190,8.886978,7.876586,1.000000,616697.504591,39848.562467,223023.254557,70250.251160,16850.251160,0.894860,0,False,False,DEPARTURE,1094307.409498
62.500000,40.045765,116.634151,536.470728,98.016530,94.654242,97.723320,0.287134,145.188851,13.630092,0.004824,0.077368,8.978244,7.575809,1.000000,634245.531343,41146.365939,222882.109492,70249.322485,16849.322485,0.920336,0,False,False,DEPARTURE,1094259.019157
63.000000,40.045401,116.634482,540.162710,98.921761,95.509619,98.645790,0.289795,145.189076,13.472634,0.004808,0.074714,9.039757,7.383963,1.000000,650184.837333,42295.171068,222741.387714,70248.394396,16848.394396,0.943477,0,False,False,DEPARTURE,1094210.172072
63.500000,40.045033,116.634815,543.808332,99.831851,96.374406,99.565236,0.292484,145.189303,13.355516,0.004791,0.073100,9.074721,7.291246,1.000000,664572.783585,43298.324397,222600.940341,70247.466892,16847.466892,0.964368,0,False,False,DEPARTURE,1094160.869739
64.000000,40.044662,116.635152,547.452408,100.742711,97.243830,100.478737,0.295187,145.189531,13.274512,0.004774,0.072407,9.086170,7.288152,1.000000,677471.220016,44161.204506,222460.617824,70246.539973,16846.539973,0.983098,0,False,False,DEPARTURE,1094111.115106
64.500000,40.044288,116.635492,551.135163,101.650784,98.113699,101.383584,0.297893,145.189761,13.225604,0.004757,0.072523,9.076962,7.365509,1.000000,688946.811416,44890.824493,222320.272290,70245.613638,16845.613638,0.999764,0,False,False,DEPARTURE,1094060.912457
65.000000,40.043911,116.635835,555.011913,102.530464,98.980356,102.236878,0.300590,145.190002,13.204999,0.004742,0.075694,9.049765,7.753501,1.000000,732968.213965,48662.590065,222179.759737,70244.687889,16844.687889,1.063660,0,False,False,DEPARTURE,1094010.287321
65.500000,40.043530,116.636181,559.102370,103.392689,99.818114,103.068525,0.303205,145.190242,13.290642,0.004712,0.079207,8.953712,8.180914,1.000000,738157.200912,48797.779401,222039.751192,70243.762724,16843.762724,1.071204,0,False,False,DEPARTURE,1093959.250418
66.000000,40.043147,116.636529,563.422755,104.236381,100.637516,103.877622,0.305769,145.190479,13.388914,0.004688,0.082991,8.850660,8.640769,1.000000,742328.610454,48848.819191,221898.869793,70242.838145,16842.838145,1.077271,0,False,False,DEPARTURE,1093907.812916
66.500000,40.042760,116.636880,567.986086,105.060737,101.437416,104.663568,0.308280,145.190715,13.497312,0.004668,0.086980,8.742270,9.126662,1.000000,745574.169490,48827.017049,221757.023771,70241.914157,16841.914157,1.081996,0,False,False,DEPARTURE,1093855.986281
67.000000,40.042371,116.637233,572.802469,105.865195,102.216954,105.426037,0.310734,145.190949,13.613598,0.004654,0.091117,8.630013,9.632767,1.000000,747984.201778,48743.071869,221614.133734,70240.990765,16840.990765,1.085507,0,False,False,DEPARTURE,1093803.782138
67.500000,40.041979,116.637589,577.879382,106.649402,102.975515,106.164941,0.313130,145.191182,13.735794,0.004646,0.095352,8.515180,10.153825,1.000000,749646.531325,48606.954542,221470.132563,70240.067973,16840.067973,1.087934,0,False,False,DEPARTURE,1093751.212159
68.000000,40.041584,116.637948,583.221949,107.413183,103.712706,106.880400,0.315468,145.191413,13.862158,0.004642,0.099642,8.398894,10.685134,1.000000,750645.560943,48427.830061,221324.965038,70239.145786,16839.145786,1.089398,0,False,False,DEPARTURE,1093698.287954
68.500000,40.041187,116.638308,588.833212,108.156520,104.428316,107.572709,0.317747,145.191642,13.991177,0.004642,0.103949,8.282127,11.222526,1.000000,751061.530992,48214.015296,221178.587290,70238.224208,16838.224208,1.090016,0,False,False,DEPARTURE,1093645.020987
69.000000,40.040788,116.638671,594.714382,108.879520,105.122297,108.242308,0.319966,145.191870,14.121543,0.004647,0.108242,8.165704,11.762342,1.000000,750969.954725,47972.966565,221030.966092,70237.303246,16837.303246,1.089898,0,False,False,DEPARTURE,1093591.422505
69.500000,40.040386,116.639036,600.865082,109.582400,105.794739,108.889752,0.322127,145.192097,14.252138,0.004656,0.112494,8.050326,12.301399,1.000000,750441.220150,47711.291201,220882.078061,70236.382904,16836.382904,1.089145,0,False,False,DEPARTURE,1093537.503481
70.000000,40.039981,116.639403,607.283564,110.265466,106.445842,109.515686,0.324229,145.192323,14.382016,0.004669,0.116683,7.936574,12.836963,1.000000,749540.343901,47434.777700,220731.908795,70235.463188,16835.463188,1.087851,0,False,False,DEPARTURE,1093483.274565
70.500000,40.039575,116.639773,613.966918,110.929096,107.075905,110.120822,0.326274,145.192548,14.510386,0.004686,0.120791,7.824926,13.366708,1.000000,748326.859703,47148.439541,220580.451973,70234.544102,16834.544102,1.086104,0,False,False,DEPARTURE,1093428.746059
71.000000,40.039166,116.640144,620.911260,111.573724,107.685303,110.705918,0.328263,145.192772,14.636599,0.004706,0.124804,7.715768,13.888685,1.000000,746854.822673,46856.568426,220427.708468,70233.625654,16833.625654,1.083982,0,False,False,DEPARTURE,1093373.927886
71.500000,40.038755,116.640517,628.111902,112.199831,108.274472,111.271762,0.330197,145.192996,14.760125,0.004729,0.128709,7.609404,14.401285,1.000000,745172.910304,46562.793322,220273.685465,70232.707846,16832.707846,1.081555,0,False,False,DEPARTURE,1093318.829580
72.000000,40.038342,116.640892,635.563505,112.807930,108.843898,111.819156,0.332077,145.193219,14.880545,0.004754,0.132499,7.506065,14.903206,1.000000,743324.601563,46270.142325,220118.395621,70231.790687,16831.790687,1.078886,0,False,False,DEPARTURE,1093263.460280
72.500000,40.037928,116.641268,643.260214,113.398558,109.394106,112.348902,0.333905,145.193442,14.997537,0.004783,0.136167,7.405922,15.393418,1.000000,741348.416625,45981.105013,219961.856272,70230.874179,16830.874179,1.076032,0,False,False,DEPARTURE,1093207.828723
73.000000,40.037511,116.641647,651.156673,113.978465,109.925645,112.879025,0.335683,145.193661,15.000000,0.004813,0.139008,7.198231,15.792918,1.000000,728065.316808,44827.339774,219804.088696,70229.958328,16829.958328,1.056766,0,False,False,DEPARTURE,1093151.934725
73.500000,40.037092,116.642027,659.221397,114.549183,110.445299,113.407919,0.337430,145.193877,15.000000,0.004852,0.141278,7.035440,16.129446,1.000000,718820.113748,44022.209637,219644.973606,70229.043141,16829.043141,1.043361,0,False,False,DEPARTURE,1093095.778896
74.000000,40.036671,116.642409,667.433030,115.111733,110.954718,113.934136,0.339151,145.194093,15.000000,0.004894,0.143161,6.905393,16.423268,1.000000,712524.729414,43462.971011,219484.752626,70228.128621,16828.128621,1.034236,0,False,False,DEPARTURE,1093039.362563
74.500000,40.036249,116.642793,675.776956,115.666844,111.455007,114.456693,0.340849,145.194308,15.000000,0.004941,0.144780,6.797484,16.687852,1.000000,708191.574620,43064.650190,219323.591674,70227.214773,16827.214773,1.027960,0,False,False,DEPARTURE,1092982.687538
75.000000,40.035824,116.643178,684.243022,116.215036,111.946946,114.974943,0.342525,145.194524,15.000000,0.004989,0.146217,6.704693,16.932131,1.000000,705161.281972,42772.554094,219161.601852,70226.301600,16826.301600,1.023575,0,False,False,DEPARTURE,1092925.755956
75.500000,40.035398,116.643565,692.824033,116.756690,112.431095,115.488483,0.344182,145.194740,15.000000,0.005039,0.147524,6.622382,17.162022,1.000000,702995.058917,42551.253774,218998.858963,70225.389104,16825.389104,1.020444,0,False,False,DEPARTURE,1092868.570150
76.000000,40.034970,116.643954,701.514752,117.292089,112.907861,115.997068,0.345820,145.194957,15.000000,0.005090,0.148737,6.547489,17.381438,1.000000,701401.816501,42377.703306,218835.415910,70224.477290,16824.477290,1.018144,0,False,False,DEPARTURE,1092811.132574
76.500000,40.034539,116.644345,710.311237,117.821454,113.377546,116.500568,0.347440,145.195174,15.000000,0.005141,0.149879,6.477989,17.592971,1.000000,700189.023318,42236.867722,218671.310671,70223.566160,16823.566160,1.016397,0,False,False,DEPARTURE,1092753.445746
77.000000,40.034108,116.644737,719.210407,118.344962,113.840386,116.998928,0.349044,145.195393,15.000000,0.005193,0.150967,6.412542,17.798339,1.000000,699229.684308,42118.913105,218506.571467,70222.655716,16822.655716,1.015018,0,False,False,DEPARTURE,1092695.512214
77.500000,40.033674,116.645131,728.209750,118.862759,114.296568,117.492139,0.350630,145.195612,15.000000,0.005245,0.152009,6.350256,17.998687,1.000000,698440.235893,42017.387829,218341.220116,70221.745960,16821.745960,1.013885,0,False,False,DEPARTURE,1092637.334526
78.000000,40.033238,116.645526,737.307142,119.374974,114.746250,117.980228,0.352201,145.195833,15.000000,0.005298,0.153013,6.290535,18.194784,1.000000,697765.802463,41928.040772,218175.274227,70220.836897,16820.836897,1.012919,0,False,False,DEPARTURE,1092578.915221
78.500000,40.032801,116.645923,746.500717,119.881718,115.189565,118.463239,0.353755,145.196054,15.000000,0.005350,0.153985,6.232975,18.387151,1.000000,697170.397782,41848.052169,218008.748621,70219.928527,16819.928527,1.012068,0,False,False,DEPARTURE,1092520.256813
79.000000,40.032362,116.646322,755.788792,120.383094,115.626634,118.941229,0.355295,145.196277,15.000000,0.005402,0.154928,6.177295,18.576149,1.000000,696630.435538,41775.532963,217841.656266,70219.020853,16819.020853,1.011297,0,False,False,DEPARTURE,1092461.361790
79.500000,40.031921,116.646722,765.169808,120.879198,116.057565,119.414264,0.356819,145.196500,15.000000,0.005454,0.155843,6.123299,18.762032,1.000000,696130.446147,41709.199193,217674.008873,70218.113878,16818.113878,1.010584,0,False,False,DEPARTURE,1092402.232605
80.000000,40.031478,116.647124,774.642302,121.370118,116.482462,119.882413,0.358328,145.196725,15.000000,0.005507,0.156734,6.070846,18.944987,1.000000,695660.259151,41648.160532,217505.817298,70217.207604,16817.207604,1.009915,0,False,False,DEPARTURE,1092342.871680
80.500000,40.031034,116.647527,784.204878,121.855940,116.901418,120.345746,0.359822,145.196951,15.000000,0.005559,0.157600,6.019826,19.125153,1.000000,695213.155738,41591.783167,217337.091793,70216.302033,16816.302033,1.009278,0,False,False,DEPARTURE,1092283.281399
81.000000,40.030588,116.647932,793.856198,122.336745,117.314525,120.804334,0.361302,145.197178,15.000000,0.005611,0.158445,5.970158,19.302640,1.000000,694784.661156,41539.601051,217167.842171,70215.397167,16815.397167,1.008669,0,False,False,DEPARTURE,1092223.464112
81.500000,40.030140,116.648339,803.594967,122.812610,117.721870,121.258248,0.362768,145.197406,15.000000,0.005663,0.159268,5.921772,19.477538,1.000000,694371.757773,41491.258543,216998.077917,70214.493008,16814.493008,1.008083,0,False,False,DEPARTURE,1092163.422135
82.000000,40.029691,116.648747,813.419929,123.283612,118.123537,121.707557,0.364220,145.197635,15.000000,0.005714,0.160071,5.874612,19.649924,1.000000,693972.373723,41446.473377,216827.808256,70213.589559,16813.589559,1.007516,0,False,False,DEPARTURE,1092103.157749
82.500000,40.029240,116.649156,823.329861,123.749822,118.519607,122.152329,0.365658,145.197865,15.000000,0.005766,0.160854,5.828627,19.819865,1.000000,693585.051513,41405.012760,216657.042201,70212.686821,16812.686821,1.006967,0,False,False,DEPARTURE,1092042.673201
83.000000,40.028787,116.649567,833.323572,124.211312,118.910157,122.592630,0.367082,145.198096,15.000000,0.005817,0.161617,5.783773,19.987421,1.000000,693208.733782,41366.677938,216485.788584,70211.784797,16811.784797,1.006433,0,False,False,DEPARTURE,1091981.970706
83.500000,40.028333,116.649979,843.399896,124.668148,119.295266,123.028525,0.368493,145.198329,15.000000,0.005869,0.162363,5.740009,20.152648,1.000000,692842.625070,41331.294213,216314.056074,70210.883489,16810.883489,1.005915,0,False,False,DEPARTURE,1091921.052445
84.000000,40.027877,116.650393,853.557695,125.120398,119.675005,123.460076,0.369892,145.198562,15.000000,0.005920,0.163090,5.697299,20.315598,1.000000,692486.102780,41298.704446,216141.853196,70209.982898,16809.982898,1.005410,0,False,False,DEPARTURE,1091859.920572
84.500000,40.027419,116.650808,863.795855,125.568125,120.049448,123.887345,0.371277,145.198796,15.000000,0.005970,0.163801,5.655607,20.476319,1.000000,692138.659863,41268.764807,215969.188335,70209.083026,16809.083026,1.004918,0,False,False,DEPARTURE,1091798.577205
85.000000,40.026960,116.651225,874.113283,126.011392,120.418664,124.310392,0.372649,145.199032,15.000000,0.006021,0.164495,5.614900,20.634857,1.000000,691799.867935,41241.341964,215796.069750,70208.183876,16808.183876,1.004439,0,False,False,DEPARTURE,1091737.024438
85.500000,40.026500,116.651643,884.508912,126.450259,120.782722,124.729273,0.374009,145.199268,15.000000,0.006072,0.165172,5.575146,20.791258,1.000000,691469.353487,41216.311183,215622.505575,70207.285449,16807.285449,1.003972,0,False,False,DEPARTURE,1091675.264333
86.000000,40.026038,116.652062,894.981693,126.884786,121.141688,125.144047,0.375357,145.199506,15.000000,0.006122,0.165835,5.536317,20.945563,1.000000,691146.782502,41193.555029,215448.503825,70206.387747,16806.387747,1.003517,0,False,False,DEPARTURE,1091613.298925
86.500000,40.025574,116.652483,905.530600,127.315031,121.495628,125.554766,0.376692,145.199744,15.000000,0.006172,0.166481,5.498383,21.097813,1.000000,690831.850432,41172.962439,215274.072399,70205.490771,16805.490771,1.003072,0,False,False,DEPARTURE,1091551.130222
87.000000,40.025109,116.652905,916.154624,127.741048,121.844604,125.961486,0.378015,145.199984,15.000000,0.006222,0.167114,5.461317,21.248048,1.000000,690524.275615,41154.428048,215099.219086,70204.594525,16804.594525,1.002639,0,False,False,DEPARTURE,1091488.760206
87.500000,40.024642,116.653329,926.852777,128.162893,122.188679,126.364257,0.379326,145.200224,15.000000,0.006272,0.167732,5.425094,21.396306,1.000000,690223.794874,41137.851671,214923.951566,70203.699008,16803.699008,1.002215,0,False,False,DEPARTURE,1091426.190831
88.000000,40.024174,116.653753,937.624088,128.580619,122.527912,126.763130,0.380626,145.200466,15.000000,0.006321,0.168336,5.389689,21.542622,1.000000,689930.160523,41123.137896,214748.277411,70202.804224,16802.804224,1.001801,0,False,False,DEPARTURE,1091363.424029
88.500000,40.023705,116.654180,948.467605,128.994278,122.862364,127.158155,0.381914,145.200708,15.000000,0.006371,0.168926,5.355078,21.687033,1.000000,689643.138269,41110.195750,214572.204091,70201.910173,16801.910173,1.001397,0,False,False,DEPARTURE,1091300.461707
89.000000,40.023234,116.654607,959.382391,129.403919,123.192091,127.549379,0.383190,145.200952,15.000000,0.006420,0.169504,5.321238,21.829573,1.000000,689362.505695,41098.938408,214395.738974,70201.016857,16801.016857,1.001003,0,False,False,DEPARTURE,1091237.305745
89.500000,40.022761,116.655036,970.367529,129.809593,123.517150,127.936850,0.384456,145.201197,15.000000,0.006469,0.170069,5.288147,21.970275,1.000000,689088.051119,41089.282951,214218.889329,70200.124278,16800.124278,1.000617,0,False,False,DEPARTURE,1091173.958005
90.000000,40.022288,116.655466,981.422114,130.211348,123.837597,128.320613,0.385710,145.201442,15.000000,0.006517,0.170621,5.255784,22.109170,1.000000,688819.572701,41081.150137,214041.662330,70199.232438,16799.232438,1.000240,0,False,False,DEPARTURE,1091110.420321
90.500000,40.021812,116.655897,992.545259,130.609230,124.153485,128.700713,0.386953,145.201689,15.000000,0.006566,0.171162,5.224129,22.246290,1.000000,688556.877719,41074.464206,213864.065053,70198.341338,16798.341338,0.999871,0,False,False,DEPARTURE,1091046.694509
91.000000,40.021336,116.656329,1003.736092,131.003286,124.464868,129.077194,0.388185,145.201936,15.000000,0.006614,0.171690,5.193163,22.381665,1.000000,688299.781958,41069.152690,213686.104483,70197.450979,16797.450979,0.999510,0,False,False,DEPARTURE,1090982.782362
91.500000,40.020858,116.656763,1014.993754,131.393560,124.771797,129.450098,0.389407,145.202185,15.000000,0.006662,0.172208,5.162866,22.515324,1.000000,688048.109176,41065.146248,213507.787515,70196.561363,16796.561363,0.999158,0,False,False,DEPARTURE,1090918.685651
92.000000,40.020378,116.657198,1026.317402,131.780096,125.074322,129.819466,0.390617,145.202434,15.000000,0.006709,0.172714,5.133220,22.647296,1.000000,687801.690645,41062.378503,213329.120952,70195.672492,16795.672492,0.998812,0,False,False,DEPARTURE,1090854.406127
92.500000,40.019898,116.657634,1037.706205,132.162938,125.372495,130.185340,0.391818,145.202684,15.000000,0.006757,0.173210,5.104210,22.777606,1.000000,687560.364717,41060.785896,213150.111514,70194.784367,16794.784367,0.998475,0,False,False,DEPARTURE,1090789.945521
93.000000,40.019416,116.658072,1049.159347,132.542126,125.666363,130.547759,0.393008,145.202936,15.000000,0.006804,0.173695,5.075816,22.906284,1.000000,687323.976444,41060.307551,212970.765831,70193.896988,16793.896988,0.998144,0,False,False,DEPARTURE,1090725.305545
93.500000,40.018932,116.658511,1060.676023,132.917702,125.955974,130.906761,0.394187,145.203188,15.000000,0.006851,0.174170,5.048024,23.033353,1.000000,687092.377223,41060.885138,212791.090453,70193.010359,16793.010359,0.997820,0,False,False,DEPARTURE,1090660.487891
94.000000,40.018448,116.658950,1072.255442,133.289706,126.241376,131.262386,0.395357,145.203441,15.000000,0.006898,0.174634,5.020819,23.158839,1.000000,686865.424458,41062.462759,212611.091846,70192.124479,16792.124479,0.997503,0,False,False,DEPARTURE,1090595.494232
94.500000,40.017962,116.659391,1083.896826,133.658178,126.522614,131.614670,0.396517,145.203695,15.000000,0.006944,0.175090,4.994184,23.282767,1.000000,686642.981263,41064.986828,212430.776396,70191.239351,16791.239351,0.997193,0,False,False,DEPARTURE,1090530.326222
95.000000,40.017474,116.659833,1095.599406,134.023156,126.799733,131.963649,0.397666,145.203950,15.000000,0.006991,0.175535,4.968106,23.405160,1.000000,686424.916165,41068.405965,212250.150408,70190.354975,16790.354975,0.996889,0,False,False,DEPARTURE,1090464.985499
95.500000,40.016986,116.660277,1107.362427,134.384677,127.072779,132.309360,0.398806,145.204206,15.000000,0.007037,0.175972,4.942570,23.526042,1.000000,686211.102841,41072.670894,212069.220113,70189.471354,16789.471354,0.996591,0,False,False,DEPARTURE,1090399.473682
96.000000,40.016496,116.660721,1119.185144,134.742779,127.341794,132.651837,0.399936,145.204463,15.000000,0.007083,0.176399,4.917564,23.645434,1.000000,686001.419860,41077.734345,211887.991663,70188.588487,16788.588487,0.996299,0,False,False,DEPARTURE,1090333.792373
96.500000,40.016005,116.661167,1131.066824,135.097497,127.606821,132.991114,0.401057,145.204721,15.000000,0.007128,0.176818,4.893075,23.763359,1.000000,685795.750450,41083.550966,211706.471136,70187.706377,16787.706377,0.996012,0,False,False,DEPARTURE,1090267.943155
97.000000,40.015513,116.661613,1143.006742,135.448868,127.867902,133.327226,0.402168,145.204980,15.000000,0.007173,0.177228,4.869089,23.879838,1.000000,685593.982272,41090.077236,211524.664537,70186.825024,16786.825024,0.995732,0,False,False,DEPARTURE,1090201.927598
97.500000,40.015019,116.662061,1155.004188,135.796925,128.125080,133.660204,0.403270,145.205239,15.000000,0.007219,0.177629,4.845594,23.994891,1.000000,685396.007208,41097.271384,211342.577799,70185.944430,16785.944430,0.995457,0,False,False,DEPARTURE,1090135.747254
98.000000,40.014524,116.662510,1167.058457,136.141703,128.378393,133.990081,0.404362,145.205500,15.000000,0.007263,0.178023,4.822580,24.108538,1.000000,685201.721164,41105.093311,211160.216784,70185.064596,16785.064596,0.995187,0,False,False,DEPARTURE,1090069.403658
98.500000,40.014028,116.662960,1179.168857,136.483236,128.627883,134.316889,0.405445,145.205761,15.000000,0.007308,0.178408,4.800034,24.220800,1.000000,685011.023884,41113.504519,210977.587284,70184.185522,16784.185522,0.994923,0,False,False,DEPARTURE,1090002.898331
99.000000,40.013531,116.663411,1191.334705,136.821557,128.873589,134.640659,0.406520,145.206023,15.000000,0.007352,0.178786,4.777946,24.331696,1.000000,684823.818771,41122.468040,210794.695023,70183.307211,16783.307211,0.994663,0,False,False,DEPARTURE,1089936.232778
99.500000,40.013033,116.663863,1203.555326,137.156697,129.115548,134.961421,0.407585,145.206286,15.000000,0.007396,0.179156,4.756305,24.441243,1.000000,684640.012720,41131.948373,210611.545660,70182.429663,16782.429663,0.994409,0,False,False,DEPARTURE,1089869.408488
100.000000,40.012533,116.664317,1215.830057,137.488688,129.353801,135.279205,0.408641,145.206550,15.000000,0.007440,0.179519,4.735102,24.549461,1.000000,684459.515961,41141.911421,210428.144783,70181.552879,16781.552879,0.994159,0,False,False,DEPARTURE,1089802.426937
100.500000,40.012032,116.664771,1228.158240,137.817561,129.588383,135.594040,0.409688,145.206815,15.000000,0.007484,0.179874,4.714325,24.656367,1.000000,684282.241910,41152.324432,210244.497921,70180.676860,16780.676860,0.993914,0,False,False,DEPARTURE,1089735.289585
101.000000,40.011531,116.665226,1240.539229,138.143348,129.819331,135.905956,0.410727,145.207080,15.000000,0.007527,0.180222,4.693965,24.761977,1.000000,684108.107025,41163.155944,210060.610535,70179.801608,16779.801608,0.993673,0,False,False,DEPARTURE,1089667.997878
101.500000,40.011028,116.665682,1252.972384,138.466077,130.046683,136.214981,0.411757,145.207347,15.000000,0.007570,0.180564,4.674014,24.866311,1.000000,683937.030678,41174.375729,209876.488026,70178.927122,16778.927122,0.993437,0,False,False,DEPARTURE,1089600.553248
102.000000,40.010523,116.666140,1265.457075,138.785779,130.270474,136.521142,0.412779,145.207614,15.000000,0.007613,0.180898,4.654462,24.969383,1.000000,683768.935022,41185.954748,209692.135730,70178.053405,16778.053405,0.993205,0,False,False,DEPARTURE,1089532.957114
102.500000,40.010018,116.666598,1277.992680,139.102482,130.490739,136.824467,0.413792,145.207882,15.000000,0.007656,0.181226,4.635301,25.071209,1.000000,683603.744874,41197.865097,209507.558927,70177.180457,16777.180457,0.992978,0,False,False,DEPARTURE,1089465.210881
103.000000,40.009512,116.667057,1290.578584,139.416214,130.707512,137.124983,0.414796,145.208151,15.000000,0.007698,0.181547,4.616521,25.171807,1.000000,683441.387602,41210.079966,209322.762833,70176.308279,16776.308279,0.992754,0,False,False,DEPARTURE,1089397.315940
103.500000,40.009004,116.667518,1303.214179,139.727005,130.920829,137.422716,0.415793,145.208421,15.000000,0.007740,0.181862,4.598115,25.271190,1.000000,683281.793016,41222.573595,209137.752608,70175.436872,16775.436872,0.992535,0,False,False,DEPARTURE,1089329.273669
104.000000,40.008496,116.667979,1315.898866,140.034881,131.130722,137.717692,0.416781,145.208691,15.000000,0.007782,0.182171,4.580075,25.369374,1.000000,683124.893263,41235.321228,208952.533353,70174.566236,16774.566236,0.992319,0,False,False,DEPARTURE,1089261.085434
104.500000,40.007986,116.668441,1328.632053,140.339869,131.337225,138.009937,0.417761,145.208963,15.000000,0.007824,0.182473,4.562393,25.466375,1.000000,682970.622734,41248.299080,208767.110113,70173.696373,16773.696373,0.992107,0,False,False,DEPARTURE,1089192.752588
105.000000,40.007475,116.668905,1341.413156,140.641997,131.540372,138.299476,0.418732,145.209235,15.000000,0.007865,0.182770,4.545062,25.562205,1.000000,682818.917969,41261.484295,208581.487875,70172.827284,16772.827284,0.991899,0,False,False,DEPARTURE,1089124.276472
105.500000,40.006964,116.669369,1354.241595,140.941290,131.740193,138.586333,0.419696,145.209507,15.000000,0.007907,0.183060,4.528075,25.656879,1.000000,682669.717570,41274.854912,208395.671574,70171.958968,16771.958968,0.991695,0,False,False,DEPARTURE,1089055.658413
106.000000,40.006451,116.669834,1367.116801,141.237774,131.936721,138.870533,0.420652,145.209781,15.000000,0.007947,0.183345,4.511424,25.750412,1.000000,682522.962117,41288.389832,208209.666088,70171.091428,16771.091428,0.991494,0,False,False,DEPARTURE,1088986.899727
106.500000,40.005937,116.670300,1380.038209,141.531475,132.129988,139.152101,0.421600,145.210056,15.000000,0.007988,0.183624,4.495102,25.842815,1.000000,682378.594087,41302.068780,208023.476243,70170.224663,16770.224663,0.991296,0,False,False,DEPARTURE,1088918.001719
107.000000,40.005422,116.670767,1393.005261,141.822417,132.320025,139.431059,0.422540,145.210331,15.000000,0.008029,0.183898,4.479103,25.934104,1.000000,682236.557783,41315.872282,207837.106813,70169.358676,16769.358676,0.991102,0,False,False,DEPARTURE,1088848.965682
107.500000,40.004906,116.671235,1406.017406,142.110626,132.506862,139.707431,0.423473,145.210607,15.000000,0.008069,0.184166,4.463421,26.024290,1.000000,682096.799256,41329.781628,207650.562518,70168.493465,16768.493465,0.990911,0,False,False,DEPARTURE,1088779.792895
108.000000,40.004389,116.671704,1419.074099,142.396125,132.690529,139.981240,0.424398,145.210883,15.000000,0.008109,0.184429,4.448049,26.113386,1.000000,681959.266240,41343.778847,207463.848028,70167.629032,16767.629032,0.990724,0,False,False,DEPARTURE,1088710.484629
108.500000,40.003871,116.672174,1432.174801,142.678939,132.871057,140.252508,0.425315,145.211161,15.000000,0.008148,0.184687,4.432981,26.201405,1.000000,681823.908087,41357.846679,207276.967964,70166.765378,16766.765378,0.990539,0,False,False,DEPARTURE,1088641.042143
109.000000,40.003352,116.672644,1445.318980,142.959091,133.048475,140.521258,0.426225,145.211439,15.000000,0.008188,0.184940,4.418212,26.288358,1.000000,681690.675701,41371.968551,207089.926895,70165.902503,16765.902503,0.990358,0,False,False,DEPARTURE,1088571.466683
109.500000,40.002832,116.673116,1458.506109,143.236605,133.222812,140.787512,0.427127,145.211718,15.000000,0.008227,0.185187,4.403735,26.374258,1.000000,681559.521484,41386.128546,206902.729343,70165.040409,16765.040409,0.990180,0,False,False,DEPARTURE,1088501.759486
110.000000,40.002312,116.673588,1471.735667,143.511502,133.394096,141.051290,0.428022,145.211998,15.000000,0.008266,0.185430,4.389545,26.459116,1.000000,681430.399274,41400.311387,206715.379781,70164.179095,16764.179095,0.990004,0,False,False,DEPARTURE,1088431.921777
110.500000,40.001790,116.674061,1485.007139,143.783807,133.562357,141.312615,0.428910,145.212278,15.000000,0.008305,0.185668,4.375636,26.542944,1.000000,681303.264294,41414.502409,206527.882635,70163.318562,16763.318562,0.989832,0,False,False,DEPARTURE,1088361.954774
111.000000,40.001267,116.674536,1498.320016,144.053541,133.727622,141.571508,0.429790,145.212559,15.000000,0.008343,0.185901,4.362004,26.625753,1.000000,681178.073099,41428.687540,206340.242285,70162.458811,16762.458811,0.989662,0,False,False,DEPARTURE,1088291.859679
111.500000,40.000743,116.675011,1511.673792,144.320726,133.889919,141.827989,0.430663,145.212841,15.000000,0.008381,0.186130,4.348642,26.707553,1.000000,681054.783528,41442.853275,206152.463062,70161.599842,16761.599842,0.989495,0,False,False,DEPARTURE,1088221.637688
112.000000,40.000218,116.675486,1525.067971,144.585383,134.049275,142.082078,0.431529,145.213124,15.000000,0.008419,0.186354,4.335547,26.788357,1.000000,680933.354655,41456.986664,205964.549254,70160.741657,16760.741657,0.989331,0,False,False,DEPARTURE,1088151.289985
112.500000,39.999693,116.675963,1538.502057,144.847535,134.205718,142.333796,0.432388,145.213407,15.000000,0.008457,0.186573,4.322713,26.868173,1.000000,680813.746746,41471.075285,205776.505105,70159.884254,16759.884254,0.989169,0,False,False,DEPARTURE,1088080.817745
